[
    {
        "city":"Los Angeles",
        "lat":"34.0194",
        "lon":"-118.4108",
        "pop_2010":"3,792,621",
        "pop_2015":"3,971,883"
    },
    {
        "city":"Chicago",
        "lat":"41.8376",
        "lon":"-87.6818",
        "pop_2010":"2,695,598",
        "pop_2015":"2,720,546"
    },
    {
        "city":"Houston",
        "lat":"29.7805",
        "lon":"-95.3863",
        "pop_2010":"2,100,263",
        "pop_2015":"2,296,224"
    },
    {
        "city":"Philadelphia",
        "lat":"40.0094",
        "lon":"-75.1333",
        "pop_2010":"1,526,006",
        "pop_2015":"1,567,442"
    },
    {
        "city":"Phoenix",
        "lat":"33.5722",
        "lon":"-112.0880",
        "pop_2010":"1,445,632",
        "pop_2015":"1,563,025"
    },
    {
        "city":"San Antonio",
        "lat":"29.4724",
        "lon":"-98.5251",
        "pop_2010":"1,327,407",
        "pop_2015":"1,469,845"
    },
    {
        "city":"San Diego",
        "lat":"32.8153",
        "lon":"-117.1350",
        "pop_2010":"1,307,402",
        "pop_2015":"1,394,928"
    },
    {
        "city":"Dallas",
        "lat":"32.7757",
        "lon":"-96.7967",
        "pop_2010":"1,197,816",
        "pop_2015":"1,300,092"
    },
    {
        "city":"San Jose",
        "lat":"37.2969",
        "lon":"-121.8193",
        "pop_2010":"945,942",
        "pop_2015":"1,026,908"
    },
    {
        "city":"Austin",
        "lat":"30.3072",
        "lon":"-97.7560",
        "pop_2010":"790,390",
        "pop_2015":"931,830"
    },
    {
        "city":"Jacksonville",
        "lat":"30.3370",
        "lon":"-81.6613",
        "pop_2010":"821,784",
        "pop_2015":"868,031"
    },
    {
        "city":"San Francisco",
        "lat":"37.7751",
        "lon":"-122.4193",
        "pop_2010":"805,235",
        "pop_2015":"864,816"
    },
    {
        "city":"Indianapolis",
        "lat":"39.7767",
        "lon":"-86.1459",
        "pop_2010":"820,445",
        "pop_2015":"853,173"
    },
    {
        "city":"Columbus",
        "lat":"39.9848",
        "lon":"-82.9850",
        "pop_2010":"787,033",
        "pop_2015":"850,106"
    },
    {
        "city":"Fort Worth",
        "lat":"32.7795",
        "lon":"-97.3463",
        "pop_2010":"741,206",
        "pop_2015":"833,319"
    },
    {
        "city":"Charlotte",
        "lat":"35.2087",
        "lon":"-80.8307",
        "pop_2010":"731,424",
        "pop_2015":"827,097"
    },
    {
        "city":"Seattle",
        "lat":"47.6205",
        "lon":"-122.3509",
        "pop_2010":"608,660",
        "pop_2015":"684,451"
    },
    {
        "city":"Denver",
        "lat":"39.7618",
        "lon":"-104.8806",
        "pop_2010":"600,158",
        "pop_2015":"682,545"
    },
    {
        "city":"El Paso",
        "lat":"31.8484",
        "lon":"-106.4270",
        "pop_2010":"649,121",
        "pop_2015":"681,124"
    },
    {
        "city":"Detroit",
        "lat":"42.3830",
        "lon":"-83.1022",
        "pop_2010":"713,777",
        "pop_2015":"677,116"
    },
    {
        "city":"Washington",
        "lat":"38.9041",
        "lon":"-77.0171",
        "pop_2010":"601,723",
        "pop_2015":"672,228"
    },
    {
        "city":"Boston",
        "lat":"42.3320",
        "lon":"-71.0202",
        "pop_2010":"617,594",
        "pop_2015":"667,137"
    },
    {
        "city":"Memphis",
        "lat":"35.1035",
        "lon":"-89.9785",
        "pop_2010":"646,889",
        "pop_2015":"655,770"
    },
    {
        "city":"Nashville",
        "lat":"36.1718",
        "lon":"-86.7850",
        "pop_2010":"601,222",
        "pop_2015":"654,610"
    },
    {
        "city":"Portland",
        "lat":"45.5370",
        "lon":"-122.6500",
        "pop_2010":"583,776",
        "pop_2015":"632,309"
    },
    {
        "city":"Oklahoma City",
        "lat":"35.4671",
        "lon":"-97.5137",
        "pop_2010":"579,999",
        "pop_2015":"631,346"
    },
    {
        "city":"Las Vegas",
        "lat":"36.2277",
        "lon":"-115.2640",
        "pop_2010":"583,756",
        "pop_2015":"623,747"
    },
    {
        "city":"Baltimore",
        "lat":"39.3002",
        "lon":"-76.6105",
        "pop_2010":"620,961",
        "pop_2015":"621,849"
    },
    {
        "city":"Louisville",
        "lat":"38.1781",
        "lon":"-85.6667",
        "pop_2010":"597,337",
        "pop_2015":"615,366"
    },
    {
        "city":"Milwaukee",
        "lat":"43.0633",
        "lon":"-87.9667",
        "pop_2010":"594,833",
        "pop_2015":"600,155"
    },
    {
        "city":"Albuquerque",
        "lat":"35.1056",
        "lon":"-106.6474",
        "pop_2010":"545,852",
        "pop_2015":"559,121"
    },
    {
        "city":"Tucson",
        "lat":"32.1543",
        "lon":"-110.8711",
        "pop_2010":"520,116",
        "pop_2015":"531,641"
    },
    {
        "city":"Fresno",
        "lat":"36.7827",
        "lon":"-119.7945",
        "pop_2010":"494,665",
        "pop_2015":"520,052"
    },
    {
        "city":"Sacramento",
        "lat":"38.5666",
        "lon":"-121.4686",
        "pop_2010":"466,488",
        "pop_2015":"490,712"
    },
    {
        "city":"Kansas City",
        "lat":"39.1252",
        "lon":"-94.5511",
        "pop_2010":"459,787",
        "pop_2015":"475,378"
    },
    {
        "city":"Long Beach",
        "lat":"33.8091",
        "lon":"-118.1553",
        "pop_2010":"462,257",
        "pop_2015":"474,140"
    },
    {
        "city":"Mesa",
        "lat":"33.4019",
        "lon":"-111.7174",
        "pop_2010":"439,041",
        "pop_2015":"471,825"
    },
    {
        "city":"Atlanta",
        "lat":"33.7629",
        "lon":"-84.4227",
        "pop_2010":"420,003",
        "pop_2015":"463,878"
    },
    {
        "city":"Colorado Springs",
        "lat":"38.8673",
        "lon":"-104.7607",
        "pop_2010":"416,427",
        "pop_2015":"456,568"
    },
    {
        "city":"Virginia Beach",
        "lat":"36.7793",
        "lon":"-76.0240",
        "pop_2010":"437,994",
        "pop_2015":"452,745"
    },
    {
        "city":"Raleigh",
        "lat":"35.8302",
        "lon":"-78.6414",
        "pop_2010":"403,892",
        "pop_2015":"451,066"
    },
    {
        "city":"Omaha",
        "lat":"41.2647",
        "lon":"-96.0419",
        "pop_2010":"408,958",
        "pop_2015":"443,885"
    },
    {
        "city":"Miami",
        "lat":"25.7752",
        "lon":"-80.2086",
        "pop_2010":"399,457",
        "pop_2015":"441,003"
    },
    {
        "city":"Oakland",
        "lat":"37.7699",
        "lon":"-122.2256",
        "pop_2010":"390,724",
        "pop_2015":"419,267"
    },
    {
        "city":"Minneapolis",
        "lat":"44.9633",
        "lon":"-93.2683",
        "pop_2010":"382,578",
        "pop_2015":"410,939"
    },
    {
        "city":"Tulsa",
        "lat":"36.1279",
        "lon":"-95.9023",
        "pop_2010":"391,906",
        "pop_2015":"403,505"
    },
    {
        "city":"Wichita",
        "lat":"37.6907",
        "lon":"-97.3427",
        "pop_2010":"382,368",
        "pop_2015":"389,965"
    },
    {
        "city":"New Orleans",
        "lat":"30.0686",
        "lon":"-89.9390",
        "pop_2010":"343,829",
        "pop_2015":"389,617"
    },
    {
        "city":"Arlington",
        "lat":"32.7007",
        "lon":"-97.1247",
        "pop_2010":"365,438",
        "pop_2015":"388,125"
    },
    {
        "city":"Cleveland",
        "lat":"41.4781",
        "lon":"-81.6795",
        "pop_2010":"396,815",
        "pop_2015":"388,072"
    },
    {
        "city":"Bakersfield",
        "lat":"35.3212",
        "lon":"-119.0183",
        "pop_2010":"347,483",
        "pop_2015":"373,640"
    },
    {
        "city":"Tampa",
        "lat":"27.9701",
        "lon":"-82.4797",
        "pop_2010":"335,709",
        "pop_2015":"369,075"
    },
    {
        "city":"Aurora",
        "lat":"39.7082",
        "lon":"-104.8235",
        "pop_2010":"325,078",
        "pop_2015":"359,407"
    },
    {
        "city":"Honolulu",
        "lat":"21.3259",
        "lon":"-157.8453",
        "pop_2010":"337,256",
        "pop_2015":"352,769"
    },
    {
        "city":"Anaheim",
        "lat":"33.8555",
        "lon":"-117.7601",
        "pop_2010":"336,265",
        "pop_2015":"350,742"
    },
    {
        "city":"Santa Ana",
        "lat":"33.7365",
        "lon":"-117.8826",
        "pop_2010":"324,528",
        "pop_2015":"335,400"
    },
    {
        "city":"Corpus Christi",
        "lat":"27.7543",
        "lon":"-97.1734",
        "pop_2010":"305,215",
        "pop_2015":"324,074"
    },
    {
        "city":"Riverside",
        "lat":"33.9381",
        "lon":"-117.3932",
        "pop_2010":"303,871",
        "pop_2015":"322,424"
    },
    {
        "city":"St. Louis",
        "lat":"38.6357",
        "lon":"-90.2446",
        "pop_2010":"319,294",
        "pop_2015":"315,685"
    },
    {
        "city":"Lexington",
        "lat":"38.0402",
        "lon":"-84.4584",
        "pop_2010":"295,803",
        "pop_2015":"314,488"
    },
    {
        "city":"Stockton",
        "lat":"37.9763",
        "lon":"-121.3133",
        "pop_2010":"291,707",
        "pop_2015":"305,658"
    },
    {
        "city":"Pittsburgh",
        "lat":"40.4398",
        "lon":"-79.9766",
        "pop_2010":"305,704",
        "pop_2015":"304,391"
    },
    {
        "city":"Saint Paul",
        "lat":"44.9489",
        "lon":"-93.1039",
        "pop_2010":"285,068",
        "pop_2015":"300,851"
    },
    {
        "city":"Anchorage",
        "lat":"61.2176",
        "lon":"-149.8953",
        "pop_2010":"291,826",
        "pop_2015":"298,695"
    },
    {
        "city":"Cincinnati",
        "lat":"39.1399",
        "lon":"-84.5064",
        "pop_2010":"296,943",
        "pop_2015":"298,550"
    },
    {
        "city":"Henderson",
        "lat":"36.0122",
        "lon":"-115.0375",
        "pop_2010":"257,729",
        "pop_2015":"285,667"
    },
    {
        "city":"Greensboro",
        "lat":"36.0965",
        "lon":"-79.8271",
        "pop_2010":"269,666",
        "pop_2015":"285,342"
    },
    {
        "city":"Plano",
        "lat":"33.0508",
        "lon":"-96.7479",
        "pop_2010":"259,841",
        "pop_2015":"283,558"
    },
    {
        "city":"Newark",
        "lat":"40.7242",
        "lon":"-74.1726",
        "pop_2010":"277,140",
        "pop_2015":"281,944"
    },
    {
        "city":"Toledo",
        "lat":"41.6641",
        "lon":"-83.5819",
        "pop_2010":"287,208",
        "pop_2015":"279,789"
    },
    {
        "city":"Lincoln",
        "lat":"40.8090",
        "lon":"-96.6804",
        "pop_2010":"258,379",
        "pop_2015":"277,348"
    },
    {
        "city":"Orlando",
        "lat":"28.4159",
        "lon":"-81.2988",
        "pop_2010":"238,300",
        "pop_2015":"270,934"
    },
    {
        "city":"Chula Vista",
        "lat":"32.6277",
        "lon":"-117.0152",
        "pop_2010":"243,916",
        "pop_2015":"265,757"
    },
    {
        "city":"Jersey City",
        "lat":"40.7114",
        "lon":"-74.0648",
        "pop_2010":"247,597",
        "pop_2015":"264,290"
    },
    {
        "city":"Chandler",
        "lat":"33.2829",
        "lon":"-111.8549",
        "pop_2010":"236,123",
        "pop_2015":"260,828"
    },
    {
        "city":"Fort Wayne",
        "lat":"41.0882",
        "lon":"-85.1439",
        "pop_2010":"253,691",
        "pop_2015":"260,326"
    },
    {
        "city":"Buffalo",
        "lat":"42.8925",
        "lon":"-78.8597",
        "pop_2010":"261,310",
        "pop_2015":"258,071"
    },
    {
        "city":"Durham",
        "lat":"35.9810",
        "lon":"-78.9056",
        "pop_2010":"228,330",
        "pop_2015":"257,636"
    },
    {
        "city":"St. Petersburg",
        "lat":"27.7620",
        "lon":"-82.6441",
        "pop_2010":"244,769",
        "pop_2015":"257,083"
    },
    {
        "city":"Irvine",
        "lat":"33.6784",
        "lon":"-117.7713",
        "pop_2010":"212,375",
        "pop_2015":"256,927"
    },
    {
        "city":"Laredo",
        "lat":"27.5477",
        "lon":"-99.4869",
        "pop_2010":"236,091",
        "pop_2015":"255,473"
    },
    {
        "city":"Lubbock",
        "lat":"33.5665",
        "lon":"-101.8867",
        "pop_2010":"229,573",
        "pop_2015":"249,042"
    },
    {
        "city":"Madison",
        "lat":"43.0878",
        "lon":"-89.4301",
        "pop_2010":"233,209",
        "pop_2015":"248,951"
    },
    {
        "city":"Gilbert",
        "lat":"33.3102",
        "lon":"-111.7422",
        "pop_2010":"208,453",
        "pop_2015":"247,542"
    },
    {
        "city":"Norfolk",
        "lat":"36.9230",
        "lon":"-76.2446",
        "pop_2010":"242,803",
        "pop_2015":"246,393"
    },
    {
        "city":"Reno",
        "lat":"39.4745",
        "lon":"-119.7765",
        "pop_2010":"225,221",
        "pop_2015":"241,445"
    },
    {
        "city":"WinstonSalem",
        "lat":"36.1033",
        "lon":"-80.2606",
        "pop_2010":"229,617",
        "pop_2015":"241,218"
    },
    {
        "city":"Glendale",
        "lat":"33.5331",
        "lon":"-112.1899",
        "pop_2010":"226,721",
        "pop_2015":"240,126"
    },
    {
        "city":"Hialeah",
        "lat":"25.8699",
        "lon":"-80.3029",
        "pop_2010":"224,669",
        "pop_2015":"237,069"
    },
    {
        "city":"Garland",
        "lat":"32.9098",
        "lon":"-96.6304",
        "pop_2010":"226,876",
        "pop_2015":"236,897"
    },
    {
        "city":"Scottsdale",
        "lat":"33.6687",
        "lon":"-111.8237",
        "pop_2010":"217,385",
        "pop_2015":"236,839"
    },
    {
        "city":"Irving",
        "lat":"32.8577",
        "lon":"-96.9700",
        "pop_2010":"216,290",
        "pop_2015":"236,607"
    },
    {
        "city":"Chesapeake",
        "lat":"36.6794",
        "lon":"-76.3018",
        "pop_2010":"222,209",
        "pop_2015":"235,429"
    },
    {
        "city":"North Las Vegas",
        "lat":"36.2830",
        "lon":"-115.0893",
        "pop_2010":"216,961",
        "pop_2015":"234,807"
    },
    {
        "city":"Fremont",
        "lat":"37.4944",
        "lon":"-121.9411",
        "pop_2010":"214,089",
        "pop_2015":"232,206"
    },
    {
        "city":"Baton Rouge",
        "lat":"30.4485",
        "lon":"-91.1259",
        "pop_2010":"229,493",
        "pop_2015":"228,590"
    },
    {
        "city":"Richmond",
        "lat":"37.5314",
        "lon":"-77.4760",
        "pop_2010":"204,214",
        "pop_2015":"220,289"
    },
    {
        "city":"Boise",
        "lat":"43.5985",
        "lon":"-116.2311",
        "pop_2010":"205,671",
        "pop_2015":"218,281"
    },
    {
        "city":"San Bernardino",
        "lat":"34.1393",
        "lon":"-117.2953",
        "pop_2010":"209,924",
        "pop_2015":"216,108"
    },
    {
        "city":"Spokane",
        "lat":"47.6736",
        "lon":"-117.4166",
        "pop_2010":"208,916",
        "pop_2015":"213,272"
    },
    {
        "city":"Birmingham",
        "lat":"33.5274",
        "lon":"-86.7990",
        "pop_2010":"212,237",
        "pop_2015":"212,461"
    },
    {
        "city":"Modesto",
        "lat":"37.6609",
        "lon":"-120.9891",
        "pop_2010":"201,165",
        "pop_2015":"211,266"
    },
    {
        "city":"Des Moines",
        "lat":"41.5739",
        "lon":"-93.6167",
        "pop_2010":"203,433",
        "pop_2015":"210,330"
    },
    {
        "city":"Rochester",
        "lat":"43.1699",
        "lon":"-77.6169",
        "pop_2010":"210,565",
        "pop_2015":"209,802"
    },
    {
        "city":"Tacoma",
        "lat":"47.2522",
        "lon":"-122.4598",
        "pop_2010":"198,397",
        "pop_2015":"207,948"
    },
    {
        "city":"Fontana",
        "lat":"34.1088",
        "lon":"-117.4627",
        "pop_2010":"196,069",
        "pop_2015":"207,460"
    },
    {
        "city":"Oxnard",
        "lat":"34.2023",
        "lon":"-119.2046",
        "pop_2010":"197,899",
        "pop_2015":"207,254"
    },
    {
        "city":"Moreno Valley",
        "lat":"33.9233",
        "lon":"-117.2057",
        "pop_2010":"193,365",
        "pop_2015":"204,198"
    },
    {
        "city":"Fayetteville",
        "lat":"35.0851",
        "lon":"-78.9803",
        "pop_2010":"200,564",
        "pop_2015":"201,963"
    },
    {
        "city":"Huntington Beach",
        "lat":"33.6906",
        "lon":"-118.0093",
        "pop_2010":"189,992",
        "pop_2015":"201,899"
    },
    {
        "city":"Yonkers",
        "lat":"40.9459",
        "lon":"-73.8674",
        "pop_2010":"195,976",
        "pop_2015":"201,116"
    },
    {
        "city":"Glendale",
        "lat":"34.1814",
        "lon":"-118.2458",
        "pop_2010":"191,719",
        "pop_2015":"201,020"
    },
    {
        "city":"Aurora",
        "lat":"41.7635",
        "lon":"-88.2901",
        "pop_2010":"197,899",
        "pop_2015":"200,661"
    },
    {
        "city":"Montgomery",
        "lat":"32.3463",
        "lon":"-86.2686",
        "pop_2010":"205,764",
        "pop_2015":"200,602"
    },
    {
        "city":"Columbus",
        "lat":"32.5102",
        "lon":"-84.8749",
        "pop_2010":"189,885",
        "pop_2015":"200,579"
    },
    {
        "city":"Amarillo",
        "lat":"35.1978",
        "lon":"-101.8287",
        "pop_2010":"190,695",
        "pop_2015":"198,645"
    },
    {
        "city":"Little Rock",
        "lat":"34.7254",
        "lon":"-92.3586",
        "pop_2010":"193,524",
        "pop_2015":"197,992"
    },
    {
        "city":"Akron",
        "lat":"41.0805",
        "lon":"-81.5214",
        "pop_2010":"199,110",
        "pop_2015":"197,542"
    },
    {
        "city":"Shreveport",
        "lat":"32.4670",
        "lon":"-93.7927",
        "pop_2010":"199,311",
        "pop_2015":"197,204"
    },
    {
        "city":"Augusta",
        "lat":"33.3655",
        "lon":"-82.0734",
        "pop_2010":"195,844",
        "pop_2015":"197,182"
    },
    {
        "city":"Grand Rapids",
        "lat":"42.9612",
        "lon":"-85.6556",
        "pop_2010":"188,040",
        "pop_2015":"195,097"
    },
    {
        "city":"Mobile",
        "lat":"30.6684",
        "lon":"-88.1002",
        "pop_2010":"195,111",
        "pop_2015":"194,288"
    },
    {
        "city":"Salt Lake City",
        "lat":"40.7785",
        "lon":"-111.9314",
        "pop_2010":"186,440",
        "pop_2015":"192,672"
    },
    {
        "city":"Huntsville",
        "lat":"34.7843",
        "lon":"-86.5390",
        "pop_2010":"180,105",
        "pop_2015":"190,582"
    },
    {
        "city":"Tallahassee",
        "lat":"30.4551",
        "lon":"-84.2534",
        "pop_2010":"181,376",
        "pop_2015":"189,907"
    },
    {
        "city":"Grand Prairie",
        "lat":"32.6842",
        "lon":"-97.0210",
        "pop_2010":"175,396",
        "pop_2015":"187,809"
    },
    {
        "city":"Overland Park",
        "lat":"38.8890",
        "lon":"-94.6906",
        "pop_2010":"173,372",
        "pop_2015":"186,515"
    },
    {
        "city":"Knoxville",
        "lat":"35.9709",
        "lon":"-83.9465",
        "pop_2010":"178,874",
        "pop_2015":"185,291"
    },
    {
        "city":"Worcester",
        "lat":"42.2695",
        "lon":"-71.8078",
        "pop_2010":"181,045",
        "pop_2015":"184,815"
    },
    {
        "city":"Brownsville",
        "lat":"26.0183",
        "lon":"-97.4538",
        "pop_2010":"175,023",
        "pop_2015":"183,887"
    },
    {
        "city":"Newport News",
        "lat":"37.0760",
        "lon":"-76.5217",
        "pop_2010":"180,719",
        "pop_2015":"182,385"
    },
    {
        "city":"Santa Clarita",
        "lat":"34.4049",
        "lon":"-118.5047",
        "pop_2010":"176,320",
        "pop_2015":"182,371"
    },
    {
        "city":"Port St. Lucie",
        "lat":"27.2810",
        "lon":"-80.3838",
        "pop_2010":"164,603",
        "pop_2015":"179,413"
    },
    {
        "city":"Providence",
        "lat":"41.8231",
        "lon":"-71.4188",
        "pop_2010":"178,042",
        "pop_2015":"179,207"
    },
    {
        "city":"Fort Lauderdale",
        "lat":"26.1413",
        "lon":"-80.1439",
        "pop_2010":"165,521",
        "pop_2015":"178,590"
    },
    {
        "city":"Chattanooga",
        "lat":"35.0665",
        "lon":"-85.2471",
        "pop_2010":"167,674",
        "pop_2015":"176,588"
    },
    {
        "city":"Tempe",
        "lat":"33.3884",
        "lon":"-111.9318",
        "pop_2010":"161,719",
        "pop_2015":"175,826"
    },
    {
        "city":"Oceanside",
        "lat":"33.2246",
        "lon":"-117.3062",
        "pop_2010":"167,086",
        "pop_2015":"175,691"
    },
    {
        "city":"Garden Grove",
        "lat":"33.7788",
        "lon":"-117.9605",
        "pop_2010":"170,883",
        "pop_2015":"175,393"
    },
    {
        "city":"Rancho Cucamonga",
        "lat":"34.1233",
        "lon":"-117.5642",
        "pop_2010":"165,269",
        "pop_2015":"175,236"
    },
    {
        "city":"Cape Coral",
        "lat":"26.6431",
        "lon":"-81.9973",
        "pop_2010":"154,305",
        "pop_2015":"175,229"
    },
    {
        "city":"Santa Rosa",
        "lat":"38.4468",
        "lon":"-122.7061",
        "pop_2010":"167,815",
        "pop_2015":"174,972"
    },
    {
        "city":"Vancouver",
        "lat":"45.6372",
        "lon":"-122.5965",
        "pop_2010":"161,791",
        "pop_2015":"172,860"
    },
    {
        "city":"Sioux Falls",
        "lat":"43.5383",
        "lon":"-96.7320",
        "pop_2010":"153,888",
        "pop_2015":"171,544"
    },
    {
        "city":"Peoria",
        "lat":"33.7877",
        "lon":"-112.3111",
        "pop_2010":"154,065",
        "pop_2015":"171,237"
    },
    {
        "city":"Ontario",
        "lat":"34.0395",
        "lon":"-117.6088",
        "pop_2010":"163,924",
        "pop_2015":"171,214"
    },
    {
        "city":"Jackson",
        "lat":"32.3158",
        "lon":"-90.2128",
        "pop_2010":"173,514",
        "pop_2015":"170,674"
    },
    {
        "city":"Elk Grove",
        "lat":"38.4144",
        "lon":"-121.3849",
        "pop_2010":"153,015",
        "pop_2015":"166,913"
    },
    {
        "city":"Springfield",
        "lat":"37.1942",
        "lon":"-93.2913",
        "pop_2010":"159,498",
        "pop_2015":"166,810"
    },
    {
        "city":"Pembroke Pines",
        "lat":"26.0212",
        "lon":"-80.3404",
        "pop_2010":"154,019",
        "pop_2015":"166,611"
    },
    {
        "city":"Salem",
        "lat":"44.9237",
        "lon":"-123.0231",
        "pop_2010":"154,637",
        "pop_2015":"164,549"
    },
    {
        "city":"Corona",
        "lat":"33.8624",
        "lon":"-117.5639",
        "pop_2010":"152,374",
        "pop_2015":"164,226"
    },
    {
        "city":"Eugene",
        "lat":"44.0567",
        "lon":"-123.1162",
        "pop_2010":"156,185",
        "pop_2015":"163,460"
    },
    {
        "city":"McKinney",
        "lat":"33.2012",
        "lon":"-96.6680",
        "pop_2010":"131,117",
        "pop_2015":"162,898"
    },
    {
        "city":"Fort Collins",
        "lat":"40.5482",
        "lon":"-105.0648",
        "pop_2010":"143,986",
        "pop_2015":"161,175"
    },
    {
        "city":"Lancaster",
        "lat":"34.6936",
        "lon":"-118.1753",
        "pop_2010":"156,633",
        "pop_2015":"161,103"
    },
    {
        "city":"Cary",
        "lat":"35.7821",
        "lon":"-78.8141",
        "pop_2010":"135,234",
        "pop_2015":"159,769"
    },
    {
        "city":"Palmdale",
        "lat":"34.5913",
        "lon":"-118.1090",
        "pop_2010":"152,750",
        "pop_2015":"158,351"
    },
    {
        "city":"Hayward",
        "lat":"37.6281",
        "lon":"-122.1063",
        "pop_2010":"144,186",
        "pop_2015":"158,289"
    },
    {
        "city":"Salinas",
        "lat":"36.6902",
        "lon":"-121.6337",
        "pop_2010":"150,441",
        "pop_2015":"157,380"
    },
    {
        "city":"Frisco",
        "lat":"33.1510",
        "lon":"-96.8193",
        "pop_2010":"116,989",
        "pop_2015":"154,407"
    },
    {
        "city":"Springfield",
        "lat":"42.1155",
        "lon":"-72.5400",
        "pop_2010":"153,060",
        "pop_2015":"154,341"
    },
    {
        "city":"Pasadena",
        "lat":"29.6583",
        "lon":"-95.1505",
        "pop_2010":"149,043",
        "pop_2015":"153,784"
    },
    {
        "city":"Macon",
        "lat":"32.505",
        "lon":"-83.396",
        "pop_2010":"91,351",
        "pop_2015":"153,515"
    },
    {
        "city":"Alexandria",
        "lat":"38.8183",
        "lon":"-77.0820",
        "pop_2010":"139,966",
        "pop_2015":"153,511"
    },
    {
        "city":"Pomona",
        "lat":"34.0586",
        "lon":"-117.7613",
        "pop_2010":"149,058",
        "pop_2015":"153,266"
    },
    {
        "city":"Lakewood",
        "lat":"39.6989",
        "lon":"-105.1176",
        "pop_2010":"142,980",
        "pop_2015":"152,597"
    },
    {
        "city":"Sunnyvale",
        "lat":"37.3858",
        "lon":"-122.0263",
        "pop_2010":"140,081",
        "pop_2015":"151,754"
    },
    {
        "city":"Escondido",
        "lat":"33.1336",
        "lon":"-117.0732",
        "pop_2010":"143,911",
        "pop_2015":"151,451"
    },
    {
        "city":"Kansas City",
        "lat":"39.1225",
        "lon":"-94.7418",
        "pop_2010":"145,786",
        "pop_2015":"151,306"
    },
    {
        "city":"Hollywood",
        "lat":"26.0311",
        "lon":"-80.1646",
        "pop_2010":"140,768",
        "pop_2015":"149,728"
    },
    {
        "city":"Clarksville",
        "lat":"36.5664",
        "lon":"-87.3452",
        "pop_2010":"132,929",
        "pop_2015":"149,176"
    },
    {
        "city":"Torrance",
        "lat":"33.8350",
        "lon":"-118.3414",
        "pop_2010":"145,438",
        "pop_2015":"148,475"
    },
    {
        "city":"Rockford",
        "lat":"42.2634",
        "lon":"-89.0628",
        "pop_2010":"152,871",
        "pop_2015":"148,278"
    },
    {
        "city":"Joliet",
        "lat":"41.5181",
        "lon":"-88.1584",
        "pop_2010":"147,433",
        "pop_2015":"147,861"
    },
    {
        "city":"Paterson",
        "lat":"40.9147",
        "lon":"-74.1628",
        "pop_2010":"146,199",
        "pop_2015":"147,754"
    },
    {
        "city":"Bridgeport",
        "lat":"41.1874",
        "lon":"-73.1957",
        "pop_2010":"144,229",
        "pop_2015":"147,629"
    },
    {
        "city":"Naperville",
        "lat":"41.7492",
        "lon":"-88.1620",
        "pop_2010":"141,853",
        "pop_2015":"147,100"
    },
    {
        "city":"Savannah",
        "lat":"32.0025",
        "lon":"-81.1536",
        "pop_2010":"136,286",
        "pop_2015":"145,674"
    },
    {
        "city":"Mesquite",
        "lat":"32.7639",
        "lon":"-96.5924",
        "pop_2010":"139,824",
        "pop_2015":"144,788"
    },
    {
        "city":"Syracuse",
        "lat":"43.0410",
        "lon":"-76.1436",
        "pop_2010":"145,170",
        "pop_2015":"144,142"
    },
    {
        "city":"Pasadena",
        "lat":"34.1606",
        "lon":"-118.1396",
        "pop_2010":"137,122",
        "pop_2015":"142,250"
    },
    {
        "city":"Orange",
        "lat":"33.8048",
        "lon":"-117.8249",
        "pop_2010":"136,416",
        "pop_2015":"140,992"
    },
    {
        "city":"Fullerton",
        "lat":"33.8857",
        "lon":"-117.9280",
        "pop_2010":"135,161",
        "pop_2015":"140,847"
    },
    {
        "city":"Killeen",
        "lat":"31.0777",
        "lon":"-97.7320",
        "pop_2010":"127,921",
        "pop_2015":"140,806"
    },
    {
        "city":"Dayton",
        "lat":"39.7774",
        "lon":"-84.1996",
        "pop_2010":"141,527",
        "pop_2015":"140,599"
    },
    {
        "city":"McAllen",
        "lat":"26.2185",
        "lon":"-98.2461",
        "pop_2010":"129,877",
        "pop_2015":"140,269"
    },
    {
        "city":"Bellevue",
        "lat":"47.5978",
        "lon":"-122.1565",
        "pop_2010":"122,363",
        "pop_2015":"139,820"
    },
    {
        "city":"Miramar",
        "lat":"25.9770",
        "lon":"-80.3358",
        "pop_2010":"122,041",
        "pop_2015":"137,132"
    },
    {
        "city":"Hampton",
        "lat":"37.0480",
        "lon":"-76.2971",
        "pop_2010":"137,436",
        "pop_2015":"136,454"
    },
    {
        "city":"West Valley City",
        "lat":"40.6885",
        "lon":"-112.0118",
        "pop_2010":"129,480",
        "pop_2015":"136,208"
    },
    {
        "city":"Warren",
        "lat":"42.4929",
        "lon":"-83.0250",
        "pop_2010":"134,056",
        "pop_2015":"135,358"
    },
    {
        "city":"Olathe",
        "lat":"38.8843",
        "lon":"-94.8188",
        "pop_2010":"125,872",
        "pop_2015":"134,305"
    },
    {
        "city":"Columbia",
        "lat":"34.0298",
        "lon":"-80.8966",
        "pop_2010":"129,272",
        "pop_2015":"133,803"
    },
    {
        "city":"Thornton",
        "lat":"39.9180",
        "lon":"-104.9454",
        "pop_2010":"118,772",
        "pop_2015":"133,451"
    },
    {
        "city":"Carrollton",
        "lat":"32.9884",
        "lon":"-96.8998",
        "pop_2010":"119,097",
        "pop_2015":"133,168"
    },
    {
        "city":"Midland",
        "lat":"32.0299",
        "lon":"-102.1097",
        "pop_2010":"111,147",
        "pop_2015":"132,950"
    },
    {
        "city":"Charleston",
        "lat":"32.8179",
        "lon":"-79.9589",
        "pop_2010":"120,083",
        "pop_2015":"132,609"
    },
    {
        "city":"Waco",
        "lat":"31.5601",
        "lon":"-97.1860",
        "pop_2010":"124,805",
        "pop_2015":"132,356"
    },
    {
        "city":"Sterling Heights",
        "lat":"42.5812",
        "lon":"-83.0303",
        "pop_2010":"129,699",
        "pop_2015":"132,052"
    },
    {
        "city":"Denton",
        "lat":"33.2151",
        "lon":"-97.1417",
        "pop_2010":"113,383",
        "pop_2015":"131,044"
    },
    {
        "city":"Cedar Rapids",
        "lat":"41.9670",
        "lon":"-91.6778",
        "pop_2010":"126,326",
        "pop_2015":"130,405"
    },
    {
        "city":"New Haven",
        "lat":"41.3108",
        "lon":"-72.9250",
        "pop_2010":"129,779",
        "pop_2015":"130,322"
    },
    {
        "city":"Roseville",
        "lat":"38.7657",
        "lon":"-121.3032",
        "pop_2010":"118,788",
        "pop_2015":"130,269"
    },
    {
        "city":"Gainesville",
        "lat":"29.6788",
        "lon":"-82.3459",
        "pop_2010":"124,354",
        "pop_2015":"130,128"
    },
    {
        "city":"Visalia",
        "lat":"36.3272",
        "lon":"-119.3234",
        "pop_2010":"124,442",
        "pop_2015":"130,104"
    },
    {
        "city":"Coral Springs",
        "lat":"26.2708",
        "lon":"-80.2593",
        "pop_2010":"121,096",
        "pop_2015":"129,485"
    },
    {
        "city":"Thousand Oaks",
        "lat":"34.1933",
        "lon":"-118.8742",
        "pop_2010":"126,683",
        "pop_2015":"129,339"
    },
    {
        "city":"Elizabeth",
        "lat":"40.6663",
        "lon":"-74.1935",
        "pop_2010":"124,969",
        "pop_2015":"129,007"
    },
    {
        "city":"Stamford",
        "lat":"41.0799",
        "lon":"-73.5460",
        "pop_2010":"122,643",
        "pop_2015":"128,874"
    },
    {
        "city":"Concord",
        "lat":"37.9722",
        "lon":"-122.0016",
        "pop_2010":"122,067",
        "pop_2015":"128,667"
    },
    {
        "city":"Surprise",
        "lat":"33.6706",
        "lon":"-112.4527",
        "pop_2010":"117,517",
        "pop_2015":"128,422"
    },
    {
        "city":"Lafayette",
        "lat":"30.2116",
        "lon":"-92.0314",
        "pop_2010":"120,623",
        "pop_2015":"127,657"
    },
    {
        "city":"Topeka",
        "lat":"39.0362",
        "lon":"-95.6948",
        "pop_2010":"127,473",
        "pop_2015":"127,265"
    },
    {
        "city":"Kent",
        "lat":"47.3853",
        "lon":"-122.2169",
        "pop_2010":"92,411",
        "pop_2015":"126,952"
    },
    {
        "city":"Simi Valley",
        "lat":"34.2669",
        "lon":"-118.7485",
        "pop_2010":"124,237",
        "pop_2015":"126,788"
    },
    {
        "city":"Santa Clara",
        "lat":"37.3646",
        "lon":"-121.9679",
        "pop_2010":"116,468",
        "pop_2015":"126,215"
    },
    {
        "city":"Murfreesboro",
        "lat":"35.8522",
        "lon":"-86.4161",
        "pop_2010":"108,755",
        "pop_2015":"126,118"
    },
    {
        "city":"Hartford",
        "lat":"41.7660",
        "lon":"-72.6833",
        "pop_2010":"124,775",
        "pop_2015":"124,006"
    },
    {
        "city":"Athens",
        "lat":"33.9496",
        "lon":"-83.3701",
        "pop_2010":"115,452",
        "pop_2015":"122,604"
    },
    {
        "city":"Victorville",
        "lat":"34.5277",
        "lon":"-117.3536",
        "pop_2010":"115,903",
        "pop_2015":"122,225"
    },
    {
        "city":"Abilene",
        "lat":"32.4545",
        "lon":"-99.7381",
        "pop_2010":"117,063",
        "pop_2015":"121,721"
    },
    {
        "city":"Vallejo",
        "lat":"38.1079",
        "lon":"-122.2639",
        "pop_2010":"115,942",
        "pop_2015":"121,253"
    },
    {
        "city":"Berkeley",
        "lat":"37.8667",
        "lon":"-122.2991",
        "pop_2010":"112,580",
        "pop_2015":"120,972"
    },
    {
        "city":"Norman",
        "lat":"35.22",
        "lon":"-97.44",
        "pop_2010":"110,925",
        "pop_2015":"120,284"
    },
    {
        "city":"Allentown",
        "lat":"40.5940",
        "lon":"-75.4782",
        "pop_2010":"118,032",
        "pop_2015":"120,207"
    },
    {
        "city":"Evansville",
        "lat":"37.9877",
        "lon":"-87.5347",
        "pop_2010":"117,429",
        "pop_2015":"119,943"
    },
    {
        "city":"Columbia",
        "lat":"38.9479",
        "lon":"-92.3261",
        "pop_2010":"108,500",
        "pop_2015":"119,108"
    },
    {
        "city":"Odessa",
        "lat":"31.8804",
        "lon":"-102.3434",
        "pop_2010":"99,940",
        "pop_2015":"118,968"
    },
    {
        "city":"Fargo",
        "lat":"46.8652",
        "lon":"-96.8290",
        "pop_2010":"105,549",
        "pop_2015":"118,523"
    },
    {
        "city":"Beaumont",
        "lat":"30.0843",
        "lon":"-94.1458",
        "pop_2010":"118,296",
        "pop_2015":"118,129"
    },
    {
        "city":"Independence",
        "lat":"39.0853",
        "lon":"-94.3513",
        "pop_2010":"116,830",
        "pop_2015":"117,255"
    },
    {
        "city":"Ann Arbor",
        "lat":"42.2756",
        "lon":"-83.7313",
        "pop_2010":"113,934",
        "pop_2015":"117,070"
    },
    {
        "city":"El Monte",
        "lat":"34.0746",
        "lon":"-118.0291",
        "pop_2010":"113,475",
        "pop_2015":"116,732"
    },
    {
        "city":"Springfield",
        "lat":"39.7639",
        "lon":"-89.6708",
        "pop_2010":"116,250",
        "pop_2015":"116,565"
    },
    {
        "city":"Round Rock",
        "lat":"30.5237",
        "lon":"-97.6674",
        "pop_2010":"99,887",
        "pop_2015":"115,997"
    },
    {
        "city":"Wilmington",
        "lat":"34.2092",
        "lon":"-77.8858",
        "pop_2010":"106,476",
        "pop_2015":"115,933"
    },
    {
        "city":"Arvada",
        "lat":"39.8097",
        "lon":"-105.1066",
        "pop_2010":"106,433",
        "pop_2015":"115,368"
    },
    {
        "city":"Provo",
        "lat":"40.2453",
        "lon":"-111.6448",
        "pop_2010":"112,488",
        "pop_2015":"115,264"
    },
    {
        "city":"Peoria",
        "lat":"40.7523",
        "lon":"-89.6171",
        "pop_2010":"115,007",
        "pop_2015":"115,070"
    },
    {
        "city":"Lansing",
        "lat":"42.7098",
        "lon":"-84.5562",
        "pop_2010":"114,297",
        "pop_2015":"115,056"
    },
    {
        "city":"Downey",
        "lat":"33.9382",
        "lon":"-118.1309",
        "pop_2010":"111,772",
        "pop_2015":"114,219"
    },
    {
        "city":"Carlsbad",
        "lat":"33.1239",
        "lon":"-117.2828",
        "pop_2010":"105,328",
        "pop_2015":"113,453"
    },
    {
        "city":"Costa Mesa",
        "lat":"33.6659",
        "lon":"-117.9123",
        "pop_2010":"109,960",
        "pop_2015":"113,204"
    },
    {
        "city":"Miami Gardens",
        "lat":"25.9489",
        "lon":"-80.2436",
        "pop_2010":"107,167",
        "pop_2015":"113,187"
    },
    {
        "city":"Westminster",
        "lat":"39.8822",
        "lon":"-105.0644",
        "pop_2010":"106,114",
        "pop_2015":"113,130"
    },
    {
        "city":"Clearwater",
        "lat":"27.9795",
        "lon":"-82.7663",
        "pop_2010":"107,685",
        "pop_2015":"113,003"
    },
    {
        "city":"Fairfield",
        "lat":"38.2568",
        "lon":"-122.0397",
        "pop_2010":"105,321",
        "pop_2015":"112,970"
    },
    {
        "city":"Rochester",
        "lat":"44.0154",
        "lon":"-92.4772",
        "pop_2010":"106,769",
        "pop_2015":"112,225"
    },
    {
        "city":"Elgin",
        "lat":"42.0396",
        "lon":"-88.3217",
        "pop_2010":"108,188",
        "pop_2015":"112,111"
    },
    {
        "city":"Temecula",
        "lat":"33.5019",
        "lon":"-117.1246",
        "pop_2010":"100,097",
        "pop_2015":"112,011"
    },
    {
        "city":"West Jordan",
        "lat":"40.6023",
        "lon":"-112.0010",
        "pop_2010":"103,712",
        "pop_2015":"111,946"
    },
    {
        "city":"Inglewood",
        "lat":"33.9561",
        "lon":"-118.3443",
        "pop_2010":"109,673",
        "pop_2015":"111,666"
    },
    {
        "city":"Richardson",
        "lat":"32.9723",
        "lon":"-96.7081",
        "pop_2010":"99,223",
        "pop_2015":"110,815"
    },
    {
        "city":"Lowell",
        "lat":"42.6389",
        "lon":"-71.3221",
        "pop_2010":"106,519",
        "pop_2015":"110,699"
    },
    {
        "city":"Gresham",
        "lat":"45.5023",
        "lon":"-122.4416",
        "pop_2010":"105,594",
        "pop_2015":"110,553"
    },
    {
        "city":"Antioch",
        "lat":"37.9775",
        "lon":"-121.7976",
        "pop_2010":"102,372",
        "pop_2015":"110,542"
    },
    {
        "city":"Cambridge",
        "lat":"42.3760",
        "lon":"-71.1183",
        "pop_2010":"105,162",
        "pop_2015":"110,402"
    },
    {
        "city":"High Point",
        "lat":"35.9855",
        "lon":"-79.9902",
        "pop_2010":"104,371",
        "pop_2015":"110,268"
    },
    {
        "city":"Billings",
        "lat":"45.7895",
        "lon":"-108.5499",
        "pop_2010":"104,170",
        "pop_2015":"110,263"
    },
    {
        "city":"Manchester",
        "lat":"42.9847",
        "lon":"-71.4439",
        "pop_2010":"109,565",
        "pop_2015":"110,229"
    },
    {
        "city":"Murrieta",
        "lat":"33.5719",
        "lon":"-117.1907",
        "pop_2010":"103,466",
        "pop_2015":"109,830"
    },
    {
        "city":"Centennial",
        "lat":"39.5906",
        "lon":"-104.8691",
        "pop_2010":"100,377",
        "pop_2015":"109,741"
    },
    {
        "city":"Richmond",
        "lat":"37.9530",
        "lon":"-122.3594",
        "pop_2010":"103,701",
        "pop_2015":"109,708"
    },
    {
        "city":"Ventura",
        "lat":"34.2681",
        "lon":"-119.2550",
        "pop_2010":"106,433",
        "pop_2015":"109,708"
    },
    {
        "city":"Pueblo",
        "lat":"38.2731",
        "lon":"-104.6124",
        "pop_2010":"106,595",
        "pop_2015":"109,412"
    },
    {
        "city":"Pearland",
        "lat":"29.5544",
        "lon":"-95.2958",
        "pop_2010":"91,252",
        "pop_2015":"108,821"
    },
    {
        "city":"Waterbury",
        "lat":"41.5585",
        "lon":"-73.0367",
        "pop_2010":"110,366",
        "pop_2015":"108,802"
    },
    {
        "city":"West Covina",
        "lat":"34.0559",
        "lon":"-117.9099",
        "pop_2010":"106,098",
        "pop_2015":"108,484"
    },
    {
        "city":"North Charleston",
        "lat":"32.8853",
        "lon":"-80.0169",
        "pop_2010":"97,471",
        "pop_2015":"108,304"
    },
    {
        "city":"Everett",
        "lat":"48.0033",
        "lon":"-122.1742",
        "pop_2010":"103,019",
        "pop_2015":"108,010"
    },
    {
        "city":"College Station",
        "lat":"30.6013",
        "lon":"-96.3144",
        "pop_2010":"93,857",
        "pop_2015":"107,889"
    },
    {
        "city":"Palm Bay",
        "lat":"27.9856",
        "lon":"-80.6626",
        "pop_2010":"103,190",
        "pop_2015":"107,888"
    },
    {
        "city":"Pompano Beach",
        "lat":"26.2426",
        "lon":"-80.1290",
        "pop_2010":"99,845",
        "pop_2015":"107,762"
    },
    {
        "city":"Boulder",
        "lat":"40.0175",
        "lon":"-105.2797",
        "pop_2010":"97,385",
        "pop_2015":"107,349"
    },
    {
        "city":"Norwalk",
        "lat":"33.9069",
        "lon":"-118.0834",
        "pop_2010":"105,549",
        "pop_2015":"107,140"
    },
    {
        "city":"West Palm Beach",
        "lat":"26.7483",
        "lon":"-80.1266",
        "pop_2010":"99,919",
        "pop_2015":"106,779"
    },
    {
        "city":"Broken Arrow",
        "lat":"36.0365",
        "lon":"-95.7810",
        "pop_2010":"98,850",
        "pop_2015":"106,563"
    },
    {
        "city":"Daly City",
        "lat":"37.7009",
        "lon":"-122.4650",
        "pop_2010":"101,123",
        "pop_2015":"106,562"
    },
    {
        "city":"Sandy Springs",
        "lat":"33.5615",
        "lon":"-84.227",
        "pop_2010":"93,853",
        "pop_2015":"105,330"
    },
    {
        "city":"Burbank",
        "lat":"34.1890",
        "lon":"-118.3249",
        "pop_2010":"103,340",
        "pop_2015":"105,319"
    },
    {
        "city":"Green Bay",
        "lat":"44.5207",
        "lon":"-87.9842",
        "pop_2010":"104,057",
        "pop_2015":"105,207"
    },
    {
        "city":"Santa Maria",
        "lat":"34.9332",
        "lon":"-120.4438",
        "pop_2010":"99,553",
        "pop_2015":"105,093"
    },
    {
        "city":"Wichita Falls",
        "lat":"33.9067",
        "lon":"-98.5259",
        "pop_2010":"104,553",
        "pop_2015":"104,710"
    },
    {
        "city":"Lakeland",
        "lat":"28.0411",
        "lon":"-81.9589",
        "pop_2010":"97,422",
        "pop_2015":"104,401"
    },
    {
        "city":"Clovis",
        "lat":"36.4931",
        "lon":"-119.4211",
        "pop_2010":"95,631",
        "pop_2015":"104,180"
    },
    {
        "city":"Lewisville",
        "lat":"33.0383",
        "lon":"-97.0061",
        "pop_2010":"95,290",
        "pop_2015":"104,039"
    },
    {
        "city":"Tyler",
        "lat":"32.35",
        "lon":"-95.30",
        "pop_2010":"96,900",
        "pop_2015":"103,700"
    },
    {
        "city":"El Cajon",
        "lat":"32.8017",
        "lon":"-116.9605",
        "pop_2010":"99,478",
        "pop_2015":"103,679"
    },
    {
        "city":"San Mateo",
        "lat":"37.5542",
        "lon":"-122.3131",
        "pop_2010":"97,207",
        "pop_2015":"103,536"
    },
    {
        "city":"Rialto",
        "lat":"34.1118",
        "lon":"-117.3883",
        "pop_2010":"99,171",
        "pop_2015":"103,132"
    },
    {
        "city":"Edison",
        "lat":"40.5040",
        "lon":"-74.3494",
        "pop_2010":"99,967",
        "pop_2015":"102,701"
    },
    {
        "city":"Davenport",
        "lat":"41.5541",
        "lon":"-90.6040",
        "pop_2010":"99,685",
        "pop_2015":"102,582"
    },
    {
        "city":"Hillsboro",
        "lat":"45.5167",
        "lon":"-122.9833",
        "pop_2010":"91,611",
        "pop_2015":"102,347"
    },
    {
        "city":"Woodbridge",
        "lat":"40.5608",
        "lon":"-74.2926",
        "pop_2010":"99,585",
        "pop_2015":"102,105"
    },
    {
        "city":"Las Cruces",
        "lat":"32.3197",
        "lon":"-106.7653",
        "pop_2010":"97,618",
        "pop_2015":"101,643"
    },
    {
        "city":"South Bend",
        "lat":"41.6769",
        "lon":"-86.2690",
        "pop_2010":"101,168",
        "pop_2015":"101,516"
    },
    {
        "city":"Vista",
        "lat":"33.1936",
        "lon":"-117.2411",
        "pop_2010":"93,834",
        "pop_2015":"100,890"
    },
    {
        "city":"Greeley",
        "lat":"40.4167",
        "lon":"-104.7167",
        "pop_2010":"92,889",
        "pop_2015":"100,883"
    },
    {
        "city":"Davie",
        "lat":"26.0814",
        "lon":"-80.2803",
        "pop_2010":"91,992",
        "pop_2015":"100,882"
    },
    {
        "city":"San Angelo",
        "lat":"31.45",
        "lon":"-100.45",
        "pop_2010":"93,200",
        "pop_2015":"100,450"
    },
    {
        "city":"Jurupa Valley",
        "lat":"33.0011",
        "lon":"-117.4706",
        "pop_2010":"0",
        "pop_2015":"100,314"
    },
    {
        "city":"Renton",
        "lat":"47.4867",
        "lon":"-122.1953",
        "pop_2010":"90,927",
        "pop_2015":"100,242"
    }
]