[
    {
        "city":"Los Angeles",
        "lat":"34.0194",
        "lon":"-118.4108",
        "pop_2010":"3792621",
        "pop_2015":"3971883",
        "state":"California"
    },
    {
        "city":"Chicago",
        "lat":"41.8376",
        "lon":"-87.6818",
        "pop_2010":"2695598",
        "pop_2015":"2720546",
        "state":"Illinois"
    },
    {
        "city":"Houston",
        "lat":"29.7805",
        "lon":"-95.3863",
        "pop_2010":"2100263",
        "pop_2015":"2296224",
        "state":"Texas"
    },
    {
        "city":"Philadelphia",
        "lat":"40.0094",
        "lon":"-75.1333",
        "pop_2010":"1526006",
        "pop_2015":"1567442",
        "state":"Pennsylvania"
    },
    {
        "city":"Phoenix",
        "lat":"33.5722",
        "lon":"-112.0880",
        "pop_2010":"1445632",
        "pop_2015":"1563025",
        "state":"Arizona"
    },
    {
        "city":"San Antonio",
        "lat":"29.4724",
        "lon":"-98.5251",
        "pop_2010":"1327407",
        "pop_2015":"1469845",
        "state":"Texas"
    },
    {
        "city":"San Diego",
        "lat":"32.8153",
        "lon":"-117.1350",
        "pop_2010":"1307402",
        "pop_2015":"1394928",
        "state":"California"
    },
    {
        "city":"Dallas",
        "lat":"32.7757",
        "lon":"-96.7967",
        "pop_2010":"1197816",
        "pop_2015":"1300092",
        "state":"Texas"
    },
    {
        "city":"San Jose",
        "lat":"37.2969",
        "lon":"-121.8193",
        "pop_2010":"945942",
        "pop_2015":"1026908",
        "state":"California"
    },
    {
        "city":"Austin",
        "lat":"30.3072",
        "lon":"-97.7560",
        "pop_2010":"790390",
        "pop_2015":"931830",
        "state":"Texas"
    },
    {
        "city":"Jacksonville",
        "lat":"30.3370",
        "lon":"-81.6613",
        "pop_2010":"821784",
        "pop_2015":"868031",
        "state":"Florida"
    },
    {
        "city":"San Francisco",
        "lat":"37.7751",
        "lon":"-122.4193",
        "pop_2010":"805235",
        "pop_2015":"864816",
        "state":"California"
    },
    {
        "city":"Indianapolis",
        "lat":"39.7767",
        "lon":"-86.1459",
        "pop_2010":"820445",
        "pop_2015":"853173",
        "state":"Indiana"
    },
    {
        "city":"Columbus",
        "lat":"39.9848",
        "lon":"-82.9850",
        "pop_2010":"787033",
        "pop_2015":"850106",
        "state":"Ohio"
    },
    {
        "city":"Fort Worth",
        "lat":"32.7795",
        "lon":"-97.3463",
        "pop_2010":"741206",
        "pop_2015":"833319",
        "state":"Texas"
    },
    {
        "city":"Charlotte",
        "lat":"35.2087",
        "lon":"-80.8307",
        "pop_2010":"731424",
        "pop_2015":"827097",
        "state":"North Carolina"
    },
    {
        "city":"Seattle",
        "lat":"47.6205",
        "lon":"-122.3509",
        "pop_2010":"608660",
        "pop_2015":"684451",
        "state":"Washington"
    },
    {
        "city":"Denver",
        "lat":"39.7618",
        "lon":"-104.8806",
        "pop_2010":"600158",
        "pop_2015":"682545",
        "state":"Colorado"
    },
    {
        "city":"El Paso",
        "lat":"31.8484",
        "lon":"-106.4270",
        "pop_2010":"649121",
        "pop_2015":"681124",
        "state":"Texas"
    },
    {
        "city":"Detroit",
        "lat":"42.3830",
        "lon":"-83.1022",
        "pop_2010":"713777",
        "pop_2015":"677116",
        "state":"Michigan"
    },
    {
        "city":"Washington",
        "lat":"38.9041",
        "lon":"-77.0171",
        "pop_2010":"601723",
        "pop_2015":"672228",
        "state":"District of Columbia"
    },
    {
        "city":"Boston",
        "lat":"42.3320",
        "lon":"-71.0202",
        "pop_2010":"617594",
        "pop_2015":"667137",
        "state":"Massachusetts"
    },
    {
        "city":"Memphis",
        "lat":"35.1035",
        "lon":"-89.9785",
        "pop_2010":"646889",
        "pop_2015":"655770",
        "state":"Tennessee"
    },
    {
        "city":"Nashville",
        "lat":"36.1718",
        "lon":"-86.7850",
        "pop_2010":"601222",
        "pop_2015":"654610",
        "state":"Tennessee"
    },
    {
        "city":"Portland",
        "lat":"45.5370",
        "lon":"-122.6500",
        "pop_2010":"583776",
        "pop_2015":"632309",
        "state":"Oregon"
    },
    {
        "city":"Oklahoma City",
        "lat":"35.4671",
        "lon":"-97.5137",
        "pop_2010":"579999",
        "pop_2015":"631346",
        "state":"Oklahoma"
    },
    {
        "city":"Las Vegas",
        "lat":"36.2277",
        "lon":"-115.2640",
        "pop_2010":"583756",
        "pop_2015":"623747",
        "state":"Nevada"
    },
    {
        "city":"Baltimore",
        "lat":"39.3002",
        "lon":"-76.6105",
        "pop_2010":"620961",
        "pop_2015":"621849",
        "state":"Maryland"
    },
    {
        "city":"Louisville",
        "lat":"38.1781",
        "lon":"-85.6667",
        "pop_2010":"597337",
        "pop_2015":"615366",
        "state":"Kentucky"
    },
    {
        "city":"Milwaukee",
        "lat":"43.0633",
        "lon":"-87.9667",
        "pop_2010":"594833",
        "pop_2015":"600155",
        "state":"Wisconsin"
    },
    {
        "city":"Albuquerque",
        "lat":"35.1056",
        "lon":"-106.6474",
        "pop_2010":"545852",
        "pop_2015":"559121",
        "state":"New Mexico"
    },
    {
        "city":"Tucson",
        "lat":"32.1543",
        "lon":"-110.8711",
        "pop_2010":"520116",
        "pop_2015":"531641",
        "state":"Arizona"
    },
    {
        "city":"Fresno",
        "lat":"36.7827",
        "lon":"-119.7945",
        "pop_2010":"494665",
        "pop_2015":"520052",
        "state":"California"
    },
    {
        "city":"Sacramento",
        "lat":"38.5666",
        "lon":"-121.4686",
        "pop_2010":"466488",
        "pop_2015":"490712",
        "state":"California"
    },
    {
        "city":"Kansas City",
        "lat":"39.1252",
        "lon":"-94.5511",
        "pop_2010":"459787",
        "pop_2015":"475378",
        "state":"Missouri"
    },
    {
        "city":"Long Beach",
        "lat":"33.8091",
        "lon":"-118.1553",
        "pop_2010":"462257",
        "pop_2015":"474140",
        "state":"California"
    },
    {
        "city":"Mesa",
        "lat":"33.4019",
        "lon":"-111.7174",
        "pop_2010":"439041",
        "pop_2015":"471825",
        "state":"Arizona"
    },
    {
        "city":"Atlanta",
        "lat":"33.7629",
        "lon":"-84.4227",
        "pop_2010":"420003",
        "pop_2015":"463878",
        "state":"Georgia"
    },
    {
        "city":"Colorado Springs",
        "lat":"38.8673",
        "lon":"-104.7607",
        "pop_2010":"416427",
        "pop_2015":"456568",
        "state":"Colorado"
    },
    {
        "city":"Virginia Beach",
        "lat":"36.7793",
        "lon":"-76.0240",
        "pop_2010":"437994",
        "pop_2015":"452745",
        "state":"Virginia"
    },
    {
        "city":"Raleigh",
        "lat":"35.8302",
        "lon":"-78.6414",
        "pop_2010":"403892",
        "pop_2015":"451066",
        "state":"North Carolina"
    },
    {
        "city":"Omaha",
        "lat":"41.2647",
        "lon":"-96.0419",
        "pop_2010":"408958",
        "pop_2015":"443885",
        "state":"Nebraska"
    },
    {
        "city":"Miami",
        "lat":"25.7752",
        "lon":"-80.2086",
        "pop_2010":"399457",
        "pop_2015":"441003",
        "state":"Florida"
    },
    {
        "city":"Oakland",
        "lat":"37.7699",
        "lon":"-122.2256",
        "pop_2010":"390724",
        "pop_2015":"419267",
        "state":"California"
    },
    {
        "city":"Minneapolis",
        "lat":"44.9633",
        "lon":"-93.2683",
        "pop_2010":"382578",
        "pop_2015":"410939",
        "state":"Minnesota"
    },
    {
        "city":"Tulsa",
        "lat":"36.1279",
        "lon":"-95.9023",
        "pop_2010":"391906",
        "pop_2015":"403505",
        "state":"Oklahoma"
    },
    {
        "city":"Wichita",
        "lat":"37.6907",
        "lon":"-97.3427",
        "pop_2010":"382368",
        "pop_2015":"389965",
        "state":"Kansas"
    },
    {
        "city":"New Orleans",
        "lat":"30.0686",
        "lon":"-89.9390",
        "pop_2010":"343829",
        "pop_2015":"389617",
        "state":"Louisiana"
    },
    {
        "city":"Arlington",
        "lat":"32.7007",
        "lon":"-97.1247",
        "pop_2010":"365438",
        "pop_2015":"388125",
        "state":"Texas"
    },
    {
        "city":"Cleveland",
        "lat":"41.4781",
        "lon":"-81.6795",
        "pop_2010":"396815",
        "pop_2015":"388072",
        "state":"Ohio"
    },
    {
        "city":"Bakersfield",
        "lat":"35.3212",
        "lon":"-119.0183",
        "pop_2010":"347483",
        "pop_2015":"373640",
        "state":"California"
    },
    {
        "city":"Tampa",
        "lat":"27.9701",
        "lon":"-82.4797",
        "pop_2010":"335709",
        "pop_2015":"369075",
        "state":"Florida"
    },
    {
        "city":"Aurora",
        "lat":"39.7082",
        "lon":"-104.8235",
        "pop_2010":"325078",
        "pop_2015":"359407",
        "state":"Colorado"
    },
    {
        "city":"Honolulu",
        "lat":"21.3259",
        "lon":"-157.8453",
        "pop_2010":"337256",
        "pop_2015":"352769",
        "state":"Hawai'i"
    },
    {
        "city":"Anaheim",
        "lat":"33.8555",
        "lon":"-117.7601",
        "pop_2010":"336265",
        "pop_2015":"350742",
        "state":"California"
    },
    {
        "city":"Santa Ana",
        "lat":"33.7365",
        "lon":"-117.8826",
        "pop_2010":"324528",
        "pop_2015":"335400",
        "state":"California"
    },
    {
        "city":"Corpus Christi",
        "lat":"27.7543",
        "lon":"-97.1734",
        "pop_2010":"305215",
        "pop_2015":"324074",
        "state":"Texas"
    },
    {
        "city":"Riverside",
        "lat":"33.9381",
        "lon":"-117.3932",
        "pop_2010":"303871",
        "pop_2015":"322424",
        "state":"California"
    },
    {
        "city":"St. Louis",
        "lat":"38.6357",
        "lon":"-90.2446",
        "pop_2010":"319294",
        "pop_2015":"315685",
        "state":"Missouri"
    },
    {
        "city":"Lexington",
        "lat":"38.0402",
        "lon":"-84.4584",
        "pop_2010":"295803",
        "pop_2015":"314488",
        "state":"Kentucky"
    },
    {
        "city":"Stockton",
        "lat":"37.9763",
        "lon":"-121.3133",
        "pop_2010":"291707",
        "pop_2015":"305658",
        "state":"California"
    },
    {
        "city":"Pittsburgh",
        "lat":"40.4398",
        "lon":"-79.9766",
        "pop_2010":"305704",
        "pop_2015":"304391",
        "state":"Pennsylvania"
    },
    {
        "city":"Saint Paul",
        "lat":"44.9489",
        "lon":"-93.1039",
        "pop_2010":"285068",
        "pop_2015":"300851",
        "state":"Minnesota"
    },
    {
        "city":"Anchorage",
        "lat":"61.2176",
        "lon":"-149.8953",
        "pop_2010":"291826",
        "pop_2015":"298695",
        "state":"Alaska"
    },
    {
        "city":"Cincinnati",
        "lat":"39.1399",
        "lon":"-84.5064",
        "pop_2010":"296943",
        "pop_2015":"298550",
        "state":"Ohio"
    },
    {
        "city":"Henderson",
        "lat":"36.0122",
        "lon":"-115.0375",
        "pop_2010":"257729",
        "pop_2015":"285667",
        "state":"Nevada"
    },
    {
        "city":"Greensboro",
        "lat":"36.0965",
        "lon":"-79.8271",
        "pop_2010":"269666",
        "pop_2015":"285342",
        "state":"North Carolina"
    },
    {
        "city":"Plano",
        "lat":"33.0508",
        "lon":"-96.7479",
        "pop_2010":"259841",
        "pop_2015":"283558",
        "state":"Texas"
    },
    {
        "city":"Newark",
        "lat":"40.7242",
        "lon":"-74.1726",
        "pop_2010":"277140",
        "pop_2015":"281944",
        "state":"New Jersey"
    },
    {
        "city":"Toledo",
        "lat":"41.6641",
        "lon":"-83.5819",
        "pop_2010":"287208",
        "pop_2015":"279789",
        "state":"Ohio"
    },
    {
        "city":"Lincoln",
        "lat":"40.8090",
        "lon":"-96.6804",
        "pop_2010":"258379",
        "pop_2015":"277348",
        "state":"Nebraska"
    },
    {
        "city":"Orlando",
        "lat":"28.4159",
        "lon":"-81.2988",
        "pop_2010":"238300",
        "pop_2015":"270934",
        "state":"Florida"
    },
    {
        "city":"Chula Vista",
        "lat":"32.6277",
        "lon":"-117.0152",
        "pop_2010":"243916",
        "pop_2015":"265757",
        "state":"California"
    },
    {
        "city":"Jersey City",
        "lat":"40.7114",
        "lon":"-74.0648",
        "pop_2010":"247597",
        "pop_2015":"264290",
        "state":"New Jersey"
    },
    {
        "city":"Chandler",
        "lat":"33.2829",
        "lon":"-111.8549",
        "pop_2010":"236123",
        "pop_2015":"260828",
        "state":"Arizona"
    },
    {
        "city":"Fort Wayne",
        "lat":"41.0882",
        "lon":"-85.1439",
        "pop_2010":"253691",
        "pop_2015":"260326",
        "state":"Indiana"
    },
    {
        "city":"Buffalo",
        "lat":"42.8925",
        "lon":"-78.8597",
        "pop_2010":"261310",
        "pop_2015":"258071",
        "state":"New York"
    },
    {
        "city":"Durham",
        "lat":"35.9810",
        "lon":"-78.9056",
        "pop_2010":"228330",
        "pop_2015":"257636",
        "state":"North Carolina"
    },
    {
        "city":"St. Petersburg",
        "lat":"27.7620",
        "lon":"-82.6441",
        "pop_2010":"244769",
        "pop_2015":"257083",
        "state":"Florida"
    },
    {
        "city":"Irvine",
        "lat":"33.6784",
        "lon":"-117.7713",
        "pop_2010":"212375",
        "pop_2015":"256927",
        "state":"California"
    },
    {
        "city":"Laredo",
        "lat":"27.5477",
        "lon":"-99.4869",
        "pop_2010":"236091",
        "pop_2015":"255473",
        "state":"Texas"
    },
    {
        "city":"Lubbock",
        "lat":"33.5665",
        "lon":"-101.8867",
        "pop_2010":"229573",
        "pop_2015":"249042",
        "state":"Texas"
    },
    {
        "city":"Madison",
        "lat":"43.0878",
        "lon":"-89.4301",
        "pop_2010":"233209",
        "pop_2015":"248951",
        "state":"Wisconsin"
    },
    {
        "city":"Gilbert",
        "lat":"33.3102",
        "lon":"-111.7422",
        "pop_2010":"208453",
        "pop_2015":"247542",
        "state":"Arizona"
    },
    {
        "city":"Norfolk",
        "lat":"36.9230",
        "lon":"-76.2446",
        "pop_2010":"242803",
        "pop_2015":"246393",
        "state":"Virginia"
    },
    {
        "city":"Reno",
        "lat":"39.4745",
        "lon":"-119.7765",
        "pop_2010":"225221",
        "pop_2015":"241445",
        "state":"Nevada"
    },
    {
        "city":"WinstonSalem",
        "lat":"36.1033",
        "lon":"-80.2606",
        "pop_2010":"229617",
        "pop_2015":"241218",
        "state":"North Carolina"
    },
    {
        "city":"Glendale",
        "lat":"33.5331",
        "lon":"-112.1899",
        "pop_2010":"226721",
        "pop_2015":"240126",
        "state":"Arizona"
    },
    {
        "city":"Hialeah",
        "lat":"25.8699",
        "lon":"-80.3029",
        "pop_2010":"224669",
        "pop_2015":"237069",
        "state":"Florida"
    },
    {
        "city":"Garland",
        "lat":"32.9098",
        "lon":"-96.6304",
        "pop_2010":"226876",
        "pop_2015":"236897",
        "state":"Texas"
    },
    {
        "city":"Scottsdale",
        "lat":"33.6687",
        "lon":"-111.8237",
        "pop_2010":"217385",
        "pop_2015":"236839",
        "state":"Arizona"
    },
    {
        "city":"Irving",
        "lat":"32.8577",
        "lon":"-96.9700",
        "pop_2010":"216290",
        "pop_2015":"236607",
        "state":"Texas"
    },
    {
        "city":"Chesapeake",
        "lat":"36.6794",
        "lon":"-76.3018",
        "pop_2010":"222209",
        "pop_2015":"235429",
        "state":"Virginia"
    },
    {
        "city":"North Las Vegas",
        "lat":"36.2830",
        "lon":"-115.0893",
        "pop_2010":"216961",
        "pop_2015":"234807",
        "state":"Nevada"
    },
    {
        "city":"Fremont",
        "lat":"37.4944",
        "lon":"-121.9411",
        "pop_2010":"214089",
        "pop_2015":"232206",
        "state":"California"
    },
    {
        "city":"Baton Rouge",
        "lat":"30.4485",
        "lon":"-91.1259",
        "pop_2010":"229493",
        "pop_2015":"228590",
        "state":"Louisiana"
    },
    {
        "city":"Richmond",
        "lat":"37.5314",
        "lon":"-77.4760",
        "pop_2010":"204214",
        "pop_2015":"220289",
        "state":"Virginia"
    },
    {
        "city":"Boise",
        "lat":"43.5985",
        "lon":"-116.2311",
        "pop_2010":"205671",
        "pop_2015":"218281",
        "state":"Idaho"
    },
    {
        "city":"San Bernardino",
        "lat":"34.1393",
        "lon":"-117.2953",
        "pop_2010":"209924",
        "pop_2015":"216108",
        "state":"California"
    },
    {
        "city":"Spokane",
        "lat":"47.6736",
        "lon":"-117.4166",
        "pop_2010":"208916",
        "pop_2015":"213272",
        "state":"Washington"
    },
    {
        "city":"Birmingham",
        "lat":"33.5274",
        "lon":"-86.7990",
        "pop_2010":"212237",
        "pop_2015":"212461",
        "state":"Alabama"
    },
    {
        "city":"Modesto",
        "lat":"37.6609",
        "lon":"-120.9891",
        "pop_2010":"201165",
        "pop_2015":"211266",
        "state":"California"
    },
    {
        "city":"Des Moines",
        "lat":"41.5739",
        "lon":"-93.6167",
        "pop_2010":"203433",
        "pop_2015":"210330",
        "state":"Iowa"
    },
    {
        "city":"Rochester",
        "lat":"43.1699",
        "lon":"-77.6169",
        "pop_2010":"210565",
        "pop_2015":"209802",
        "state":"New York"
    },
    {
        "city":"Tacoma",
        "lat":"47.2522",
        "lon":"-122.4598",
        "pop_2010":"198397",
        "pop_2015":"207948",
        "state":"Washington"
    },
    {
        "city":"Fontana",
        "lat":"34.1088",
        "lon":"-117.4627",
        "pop_2010":"196069",
        "pop_2015":"207460",
        "state":"California"
    },
    {
        "city":"Oxnard",
        "lat":"34.2023",
        "lon":"-119.2046",
        "pop_2010":"197899",
        "pop_2015":"207254",
        "state":"California"
    },
    {
        "city":"Moreno Valley",
        "lat":"33.9233",
        "lon":"-117.2057",
        "pop_2010":"193365",
        "pop_2015":"204198",
        "state":"California"
    },
    {
        "city":"Fayetteville",
        "lat":"35.0851",
        "lon":"-78.9803",
        "pop_2010":"200564",
        "pop_2015":"201963",
        "state":"North Carolina"
    },
    {
        "city":"Huntington Beach",
        "lat":"33.6906",
        "lon":"-118.0093",
        "pop_2010":"189992",
        "pop_2015":"201899",
        "state":"California"
    },
    {
        "city":"Yonkers",
        "lat":"40.9459",
        "lon":"-73.8674",
        "pop_2010":"195976",
        "pop_2015":"201116",
        "state":"New York"
    },
    {
        "city":"Glendale",
        "lat":"34.1814",
        "lon":"-118.2458",
        "pop_2010":"191719",
        "pop_2015":"201020",
        "state":"California"
    },
    {
        "city":"Aurora",
        "lat":"41.7635",
        "lon":"-88.2901",
        "pop_2010":"197899",
        "pop_2015":"200661",
        "state":"Illinois"
    },
    {
        "city":"Montgomery",
        "lat":"32.3463",
        "lon":"-86.2686",
        "pop_2010":"205764",
        "pop_2015":"200602",
        "state":"Alabama"
    },
    {
        "city":"Columbus",
        "lat":"32.5102",
        "lon":"-84.8749",
        "pop_2010":"189885",
        "pop_2015":"200579",
        "state":"Georgia"
    },
    {
        "city":"Amarillo",
        "lat":"35.1978",
        "lon":"-101.8287",
        "pop_2010":"190695",
        "pop_2015":"198645",
        "state":"Texas"
    },
    {
        "city":"Little Rock",
        "lat":"34.7254",
        "lon":"-92.3586",
        "pop_2010":"193524",
        "pop_2015":"197992",
        "state":"Arkansas"
    },
    {
        "city":"Akron",
        "lat":"41.0805",
        "lon":"-81.5214",
        "pop_2010":"199110",
        "pop_2015":"197542",
        "state":"Ohio"
    },
    {
        "city":"Shreveport",
        "lat":"32.4670",
        "lon":"-93.7927",
        "pop_2010":"199311",
        "pop_2015":"197204",
        "state":"Louisiana"
    },
    {
        "city":"Augusta",
        "lat":"33.3655",
        "lon":"-82.0734",
        "pop_2010":"195844",
        "pop_2015":"197182",
        "state":"Georgia"
    },
    {
        "city":"Grand Rapids",
        "lat":"42.9612",
        "lon":"-85.6556",
        "pop_2010":"188040",
        "pop_2015":"195097",
        "state":"Michigan"
    },
    {
        "city":"Mobile",
        "lat":"30.6684",
        "lon":"-88.1002",
        "pop_2010":"195111",
        "pop_2015":"194288",
        "state":"Alabama"
    },
    {
        "city":"Salt Lake City",
        "lat":"40.7785",
        "lon":"-111.9314",
        "pop_2010":"186440",
        "pop_2015":"192672",
        "state":"Utah"
    },
    {
        "city":"Huntsville",
        "lat":"34.7843",
        "lon":"-86.5390",
        "pop_2010":"180105",
        "pop_2015":"190582",
        "state":"Alabama"
    },
    {
        "city":"Tallahassee",
        "lat":"30.4551",
        "lon":"-84.2534",
        "pop_2010":"181376",
        "pop_2015":"189907",
        "state":"Florida"
    },
    {
        "city":"Grand Prairie",
        "lat":"32.6842",
        "lon":"-97.0210",
        "pop_2010":"175396",
        "pop_2015":"187809",
        "state":"Texas"
    },
    {
        "city":"Overland Park",
        "lat":"38.8890",
        "lon":"-94.6906",
        "pop_2010":"173372",
        "pop_2015":"186515",
        "state":"Kansas"
    },
    {
        "city":"Knoxville",
        "lat":"35.9709",
        "lon":"-83.9465",
        "pop_2010":"178874",
        "pop_2015":"185291",
        "state":"Tennessee"
    },
    {
        "city":"Worcester",
        "lat":"42.2695",
        "lon":"-71.8078",
        "pop_2010":"181045",
        "pop_2015":"184815",
        "state":"Massachusetts"
    },
    {
        "city":"Brownsville",
        "lat":"26.0183",
        "lon":"-97.4538",
        "pop_2010":"175023",
        "pop_2015":"183887",
        "state":"Texas"
    },
    {
        "city":"Newport News",
        "lat":"37.0760",
        "lon":"-76.5217",
        "pop_2010":"180719",
        "pop_2015":"182385",
        "state":"Virginia"
    },
    {
        "city":"Santa Clarita",
        "lat":"34.4049",
        "lon":"-118.5047",
        "pop_2010":"176320",
        "pop_2015":"182371",
        "state":"California"
    },
    {
        "city":"Port St. Lucie",
        "lat":"27.2810",
        "lon":"-80.3838",
        "pop_2010":"164603",
        "pop_2015":"179413",
        "state":"Florida"
    },
    {
        "city":"Providence",
        "lat":"41.8231",
        "lon":"-71.4188",
        "pop_2010":"178042",
        "pop_2015":"179207",
        "state":"Rhode Island"
    },
    {
        "city":"Fort Lauderdale",
        "lat":"26.1413",
        "lon":"-80.1439",
        "pop_2010":"165521",
        "pop_2015":"178590",
        "state":"Florida"
    },
    {
        "city":"Chattanooga",
        "lat":"35.0665",
        "lon":"-85.2471",
        "pop_2010":"167674",
        "pop_2015":"176588",
        "state":"Tennessee"
    },
    {
        "city":"Tempe",
        "lat":"33.3884",
        "lon":"-111.9318",
        "pop_2010":"161719",
        "pop_2015":"175826",
        "state":"Arizona"
    },
    {
        "city":"Oceanside",
        "lat":"33.2246",
        "lon":"-117.3062",
        "pop_2010":"167086",
        "pop_2015":"175691",
        "state":"California"
    },
    {
        "city":"Garden Grove",
        "lat":"33.7788",
        "lon":"-117.9605",
        "pop_2010":"170883",
        "pop_2015":"175393",
        "state":"California"
    },
    {
        "city":"Rancho Cucamonga",
        "lat":"34.1233",
        "lon":"-117.5642",
        "pop_2010":"165269",
        "pop_2015":"175236",
        "state":"California"
    },
    {
        "city":"Cape Coral",
        "lat":"26.6431",
        "lon":"-81.9973",
        "pop_2010":"154305",
        "pop_2015":"175229",
        "state":"Florida"
    },
    {
        "city":"Santa Rosa",
        "lat":"38.4468",
        "lon":"-122.7061",
        "pop_2010":"167815",
        "pop_2015":"174972",
        "state":"California"
    },
    {
        "city":"Vancouver",
        "lat":"45.6372",
        "lon":"-122.5965",
        "pop_2010":"161791",
        "pop_2015":"172860",
        "state":"Washington"
    },
    {
        "city":"Sioux Falls",
        "lat":"43.5383",
        "lon":"-96.7320",
        "pop_2010":"153888",
        "pop_2015":"171544",
        "state":"South Dakota"
    },
    {
        "city":"Peoria",
        "lat":"33.7877",
        "lon":"-112.3111",
        "pop_2010":"154065",
        "pop_2015":"171237",
        "state":"Arizona"
    },
    {
        "city":"Ontario",
        "lat":"34.0395",
        "lon":"-117.6088",
        "pop_2010":"163924",
        "pop_2015":"171214",
        "state":"California"
    },
    {
        "city":"Jackson",
        "lat":"32.3158",
        "lon":"-90.2128",
        "pop_2010":"173514",
        "pop_2015":"170674",
        "state":"Mississippi"
    },
    {
        "city":"Elk Grove",
        "lat":"38.4144",
        "lon":"-121.3849",
        "pop_2010":"153015",
        "pop_2015":"166913",
        "state":"California"
    },
    {
        "city":"Springfield",
        "lat":"37.1942",
        "lon":"-93.2913",
        "pop_2010":"159498",
        "pop_2015":"166810",
        "state":"Missouri"
    },
    {
        "city":"Pembroke Pines",
        "lat":"26.0212",
        "lon":"-80.3404",
        "pop_2010":"154019",
        "pop_2015":"166611",
        "state":"Florida"
    },
    {
        "city":"Salem",
        "lat":"44.9237",
        "lon":"-123.0231",
        "pop_2010":"154637",
        "pop_2015":"164549",
        "state":"Oregon"
    },
    {
        "city":"Corona",
        "lat":"33.8624",
        "lon":"-117.5639",
        "pop_2010":"152374",
        "pop_2015":"164226",
        "state":"California"
    },
    {
        "city":"Eugene",
        "lat":"44.0567",
        "lon":"-123.1162",
        "pop_2010":"156185",
        "pop_2015":"163460",
        "state":"Oregon"
    },
    {
        "city":"McKinney",
        "lat":"33.2012",
        "lon":"-96.6680",
        "pop_2010":"131117",
        "pop_2015":"162898",
        "state":"Texas"
    },
    {
        "city":"Fort Collins",
        "lat":"40.5482",
        "lon":"-105.0648",
        "pop_2010":"143986",
        "pop_2015":"161175",
        "state":"Colorado"
    },
    {
        "city":"Lancaster",
        "lat":"34.6936",
        "lon":"-118.1753",
        "pop_2010":"156633",
        "pop_2015":"161103",
        "state":"California"
    },
    {
        "city":"Cary",
        "lat":"35.7821",
        "lon":"-78.8141",
        "pop_2010":"135234",
        "pop_2015":"159769",
        "state":"North Carolina"
    },
    {
        "city":"Palmdale",
        "lat":"34.5913",
        "lon":"-118.1090",
        "pop_2010":"152750",
        "pop_2015":"158351",
        "state":"California"
    },
    {
        "city":"Hayward",
        "lat":"37.6281",
        "lon":"-122.1063",
        "pop_2010":"144186",
        "pop_2015":"158289",
        "state":"California"
    },
    {
        "city":"Salinas",
        "lat":"36.6902",
        "lon":"-121.6337",
        "pop_2010":"150441",
        "pop_2015":"157380",
        "state":"California"
    },
    {
        "city":"Frisco",
        "lat":"33.1510",
        "lon":"-96.8193",
        "pop_2010":"116989",
        "pop_2015":"154407",
        "state":"Texas"
    },
    {
        "city":"Springfield",
        "lat":"42.1155",
        "lon":"-72.5400",
        "pop_2010":"153060",
        "pop_2015":"154341",
        "state":"Massachusetts"
    },
    {
        "city":"Pasadena",
        "lat":"29.6583",
        "lon":"-95.1505",
        "pop_2010":"149043",
        "pop_2015":"153784",
        "state":"Texas"
    },
    {
        "city":"Macon",
        "lat":"32.505",
        "lon":"-83.396",
        "pop_2010":"91351",
        "pop_2015":"153515",
        "state":"Georgia"
    },
    {
        "city":"Alexandria",
        "lat":"38.8183",
        "lon":"-77.0820",
        "pop_2010":"139966",
        "pop_2015":"153511",
        "state":"Virginia"
    },
    {
        "city":"Pomona",
        "lat":"34.0586",
        "lon":"-117.7613",
        "pop_2010":"149058",
        "pop_2015":"153266",
        "state":"California"
    },
    {
        "city":"Lakewood",
        "lat":"39.6989",
        "lon":"-105.1176",
        "pop_2010":"142980",
        "pop_2015":"152597",
        "state":"Colorado"
    },
    {
        "city":"Sunnyvale",
        "lat":"37.3858",
        "lon":"-122.0263",
        "pop_2010":"140081",
        "pop_2015":"151754",
        "state":"California"
    },
    {
        "city":"Escondido",
        "lat":"33.1336",
        "lon":"-117.0732",
        "pop_2010":"143911",
        "pop_2015":"151451",
        "state":"California"
    },
    {
        "city":"Kansas City",
        "lat":"39.1225",
        "lon":"-94.7418",
        "pop_2010":"145786",
        "pop_2015":"151306",
        "state":"Kansas"
    },
    {
        "city":"Hollywood",
        "lat":"26.0311",
        "lon":"-80.1646",
        "pop_2010":"140768",
        "pop_2015":"149728",
        "state":"Florida"
    },
    {
        "city":"Clarksville",
        "lat":"36.5664",
        "lon":"-87.3452",
        "pop_2010":"132929",
        "pop_2015":"149176",
        "state":"Tennessee"
    },
    {
        "city":"Torrance",
        "lat":"33.8350",
        "lon":"-118.3414",
        "pop_2010":"145438",
        "pop_2015":"148475",
        "state":"California"
    },
    {
        "city":"Rockford",
        "lat":"42.2634",
        "lon":"-89.0628",
        "pop_2010":"152871",
        "pop_2015":"148278",
        "state":"Illinois"
    },
    {
        "city":"Joliet",
        "lat":"41.5181",
        "lon":"-88.1584",
        "pop_2010":"147433",
        "pop_2015":"147861",
        "state":"Illinois"
    },
    {
        "city":"Paterson",
        "lat":"40.9147",
        "lon":"-74.1628",
        "pop_2010":"146199",
        "pop_2015":"147754",
        "state":"New Jersey"
    },
    {
        "city":"Bridgeport",
        "lat":"41.1874",
        "lon":"-73.1957",
        "pop_2010":"144229",
        "pop_2015":"147629",
        "state":"Connecticut"
    },
    {
        "city":"Naperville",
        "lat":"41.7492",
        "lon":"-88.1620",
        "pop_2010":"141853",
        "pop_2015":"147100",
        "state":"Illinois"
    },
    {
        "city":"Savannah",
        "lat":"32.0025",
        "lon":"-81.1536",
        "pop_2010":"136286",
        "pop_2015":"145674",
        "state":"Georgia"
    },
    {
        "city":"Mesquite",
        "lat":"32.7639",
        "lon":"-96.5924",
        "pop_2010":"139824",
        "pop_2015":"144788",
        "state":"Texas"
    },
    {
        "city":"Syracuse",
        "lat":"43.0410",
        "lon":"-76.1436",
        "pop_2010":"145170",
        "pop_2015":"144142",
        "state":"New York"
    },
    {
        "city":"Pasadena",
        "lat":"34.1606",
        "lon":"-118.1396",
        "pop_2010":"137122",
        "pop_2015":"142250",
        "state":"California"
    },
    {
        "city":"Orange",
        "lat":"33.8048",
        "lon":"-117.8249",
        "pop_2010":"136416",
        "pop_2015":"140992",
        "state":"California"
    },
    {
        "city":"Fullerton",
        "lat":"33.8857",
        "lon":"-117.9280",
        "pop_2010":"135161",
        "pop_2015":"140847",
        "state":"California"
    },
    {
        "city":"Killeen",
        "lat":"31.0777",
        "lon":"-97.7320",
        "pop_2010":"127921",
        "pop_2015":"140806",
        "state":"Texas"
    },
    {
        "city":"Dayton",
        "lat":"39.7774",
        "lon":"-84.1996",
        "pop_2010":"141527",
        "pop_2015":"140599",
        "state":"Ohio"
    },
    {
        "city":"McAllen",
        "lat":"26.2185",
        "lon":"-98.2461",
        "pop_2010":"129877",
        "pop_2015":"140269",
        "state":"Texas"
    },
    {
        "city":"Bellevue",
        "lat":"47.5978",
        "lon":"-122.1565",
        "pop_2010":"122363",
        "pop_2015":"139820",
        "state":"Washington"
    },
    {
        "city":"Miramar",
        "lat":"25.9770",
        "lon":"-80.3358",
        "pop_2010":"122041",
        "pop_2015":"137132",
        "state":"Florida"
    },
    {
        "city":"Hampton",
        "lat":"37.0480",
        "lon":"-76.2971",
        "pop_2010":"137436",
        "pop_2015":"136454",
        "state":"Virginia"
    },
    {
        "city":"West Valley City",
        "lat":"40.6885",
        "lon":"-112.0118",
        "pop_2010":"129480",
        "pop_2015":"136208",
        "state":"Utah"
    },
    {
        "city":"Warren",
        "lat":"42.4929",
        "lon":"-83.0250",
        "pop_2010":"134056",
        "pop_2015":"135358",
        "state":"Michigan"
    },
    {
        "city":"Olathe",
        "lat":"38.8843",
        "lon":"-94.8188",
        "pop_2010":"125872",
        "pop_2015":"134305",
        "state":"Kansas"
    },
    {
        "city":"Columbia",
        "lat":"34.0298",
        "lon":"-80.8966",
        "pop_2010":"129272",
        "pop_2015":"133803",
        "state":"South Carolina"
    },
    {
        "city":"Thornton",
        "lat":"39.9180",
        "lon":"-104.9454",
        "pop_2010":"118772",
        "pop_2015":"133451",
        "state":"Colorado"
    },
    {
        "city":"Carrollton",
        "lat":"32.9884",
        "lon":"-96.8998",
        "pop_2010":"119097",
        "pop_2015":"133168",
        "state":"Texas"
    },
    {
        "city":"Midland",
        "lat":"32.0299",
        "lon":"-102.1097",
        "pop_2010":"111147",
        "pop_2015":"132950",
        "state":"Texas"
    },
    {
        "city":"Charleston",
        "lat":"32.8179",
        "lon":"-79.9589",
        "pop_2010":"120083",
        "pop_2015":"132609",
        "state":"South Carolina"
    },
    {
        "city":"Waco",
        "lat":"31.5601",
        "lon":"-97.1860",
        "pop_2010":"124805",
        "pop_2015":"132356",
        "state":"Texas"
    },
    {
        "city":"Sterling Heights",
        "lat":"42.5812",
        "lon":"-83.0303",
        "pop_2010":"129699",
        "pop_2015":"132052",
        "state":"Michigan"
    },
    {
        "city":"Denton",
        "lat":"33.2151",
        "lon":"-97.1417",
        "pop_2010":"113383",
        "pop_2015":"131044",
        "state":"Texas"
    },
    {
        "city":"Cedar Rapids",
        "lat":"41.9670",
        "lon":"-91.6778",
        "pop_2010":"126326",
        "pop_2015":"130405",
        "state":"Iowa"
    },
    {
        "city":"New Haven",
        "lat":"41.3108",
        "lon":"-72.9250",
        "pop_2010":"129779",
        "pop_2015":"130322",
        "state":"Connecticut"
    },
    {
        "city":"Roseville",
        "lat":"38.7657",
        "lon":"-121.3032",
        "pop_2010":"118788",
        "pop_2015":"130269",
        "state":"California"
    },
    {
        "city":"Gainesville",
        "lat":"29.6788",
        "lon":"-82.3459",
        "pop_2010":"124354",
        "pop_2015":"130128",
        "state":"Florida"
    },
    {
        "city":"Visalia",
        "lat":"36.3272",
        "lon":"-119.3234",
        "pop_2010":"124442",
        "pop_2015":"130104",
        "state":"California"
    },
    {
        "city":"Coral Springs",
        "lat":"26.2708",
        "lon":"-80.2593",
        "pop_2010":"121096",
        "pop_2015":"129485",
        "state":"Florida"
    },
    {
        "city":"Thousand Oaks",
        "lat":"34.1933",
        "lon":"-118.8742",
        "pop_2010":"126683",
        "pop_2015":"129339",
        "state":"California"
    },
    {
        "city":"Elizabeth",
        "lat":"40.6663",
        "lon":"-74.1935",
        "pop_2010":"124969",
        "pop_2015":"129007",
        "state":"New Jersey"
    },
    {
        "city":"Stamford",
        "lat":"41.0799",
        "lon":"-73.5460",
        "pop_2010":"122643",
        "pop_2015":"128874",
        "state":"Connecticut"
    },
    {
        "city":"Concord",
        "lat":"37.9722",
        "lon":"-122.0016",
        "pop_2010":"122067",
        "pop_2015":"128667",
        "state":"California"
    },
    {
        "city":"Surprise",
        "lat":"33.6706",
        "lon":"-112.4527",
        "pop_2010":"117517",
        "pop_2015":"128422",
        "state":"Arizona"
    },
    {
        "city":"Lafayette",
        "lat":"30.2116",
        "lon":"-92.0314",
        "pop_2010":"120623",
        "pop_2015":"127657",
        "state":"Louisiana"
    },
    {
        "city":"Topeka",
        "lat":"39.0362",
        "lon":"-95.6948",
        "pop_2010":"127473",
        "pop_2015":"127265",
        "state":"Kansas"
    },
    {
        "city":"Kent",
        "lat":"47.3853",
        "lon":"-122.2169",
        "pop_2010":"92411",
        "pop_2015":"126952",
        "state":"Washington"
    },
    {
        "city":"Simi Valley",
        "lat":"34.2669",
        "lon":"-118.7485",
        "pop_2010":"124237",
        "pop_2015":"126788",
        "state":"California"
    },
    {
        "city":"Santa Clara",
        "lat":"37.3646",
        "lon":"-121.9679",
        "pop_2010":"116468",
        "pop_2015":"126215",
        "state":"California"
    },
    {
        "city":"Murfreesboro",
        "lat":"35.8522",
        "lon":"-86.4161",
        "pop_2010":"108755",
        "pop_2015":"126118",
        "state":"Tennessee"
    },
    {
        "city":"Hartford",
        "lat":"41.7660",
        "lon":"-72.6833",
        "pop_2010":"124775",
        "pop_2015":"124006",
        "state":"Connecticut"
    },
    {
        "city":"Athens",
        "lat":"33.9496",
        "lon":"-83.3701",
        "pop_2010":"115452",
        "pop_2015":"122604",
        "state":"Georgia"
    },
    {
        "city":"Victorville",
        "lat":"34.5277",
        "lon":"-117.3536",
        "pop_2010":"115903",
        "pop_2015":"122225",
        "state":"California"
    },
    {
        "city":"Abilene",
        "lat":"32.4545",
        "lon":"-99.7381",
        "pop_2010":"117063",
        "pop_2015":"121721",
        "state":"Texas"
    },
    {
        "city":"Vallejo",
        "lat":"38.1079",
        "lon":"-122.2639",
        "pop_2010":"115942",
        "pop_2015":"121253",
        "state":"California"
    },
    {
        "city":"Berkeley",
        "lat":"37.8667",
        "lon":"-122.2991",
        "pop_2010":"112580",
        "pop_2015":"120972",
        "state":"California"
    },
    {
        "city":"Norman",
        "lat":"35.22",
        "lon":"-97.44",
        "pop_2010":"110925",
        "pop_2015":"120284",
        "state":"Oklahoma"
    },
    {
        "city":"Allentown",
        "lat":"40.5940",
        "lon":"-75.4782",
        "pop_2010":"118032",
        "pop_2015":"120207",
        "state":"Pennsylvania"
    },
    {
        "city":"Evansville",
        "lat":"37.9877",
        "lon":"-87.5347",
        "pop_2010":"117429",
        "pop_2015":"119943",
        "state":"Indiana"
    },
    {
        "city":"Columbia",
        "lat":"38.9479",
        "lon":"-92.3261",
        "pop_2010":"108500",
        "pop_2015":"119108",
        "state":"Missouri"
    },
    {
        "city":"Odessa",
        "lat":"31.8804",
        "lon":"-102.3434",
        "pop_2010":"99940",
        "pop_2015":"118968",
        "state":"Texas"
    },
    {
        "city":"Fargo",
        "lat":"46.8652",
        "lon":"-96.8290",
        "pop_2010":"105549",
        "pop_2015":"118523",
        "state":"North Dakota"
    },
    {
        "city":"Beaumont",
        "lat":"30.0843",
        "lon":"-94.1458",
        "pop_2010":"118296",
        "pop_2015":"118129",
        "state":"Texas"
    },
    {
        "city":"Independence",
        "lat":"39.0853",
        "lon":"-94.3513",
        "pop_2010":"116830",
        "pop_2015":"117255",
        "state":"Missouri"
    },
    {
        "city":"Ann Arbor",
        "lat":"42.2756",
        "lon":"-83.7313",
        "pop_2010":"113934",
        "pop_2015":"117070",
        "state":"Michigan"
    },
    {
        "city":"El Monte",
        "lat":"34.0746",
        "lon":"-118.0291",
        "pop_2010":"113475",
        "pop_2015":"116732",
        "state":"California"
    },
    {
        "city":"Springfield",
        "lat":"39.7639",
        "lon":"-89.6708",
        "pop_2010":"116250",
        "pop_2015":"116565",
        "state":"Illinois"
    },
    {
        "city":"Round Rock",
        "lat":"30.5237",
        "lon":"-97.6674",
        "pop_2010":"99887",
        "pop_2015":"115997",
        "state":"Texas"
    },
    {
        "city":"Wilmington",
        "lat":"34.2092",
        "lon":"-77.8858",
        "pop_2010":"106476",
        "pop_2015":"115933",
        "state":"North Carolina"
    },
    {
        "city":"Arvada",
        "lat":"39.8097",
        "lon":"-105.1066",
        "pop_2010":"106433",
        "pop_2015":"115368",
        "state":"Colorado"
    },
    {
        "city":"Provo",
        "lat":"40.2453",
        "lon":"-111.6448",
        "pop_2010":"112488",
        "pop_2015":"115264",
        "state":"Utah"
    },
    {
        "city":"Peoria",
        "lat":"40.7523",
        "lon":"-89.6171",
        "pop_2010":"115007",
        "pop_2015":"115070",
        "state":"Illinois"
    },
    {
        "city":"Lansing",
        "lat":"42.7098",
        "lon":"-84.5562",
        "pop_2010":"114297",
        "pop_2015":"115056",
        "state":"Michigan"
    },
    {
        "city":"Downey",
        "lat":"33.9382",
        "lon":"-118.1309",
        "pop_2010":"111772",
        "pop_2015":"114219",
        "state":"California"
    },
    {
        "city":"Carlsbad",
        "lat":"33.1239",
        "lon":"-117.2828",
        "pop_2010":"105328",
        "pop_2015":"113453",
        "state":"California"
    },
    {
        "city":"Costa Mesa",
        "lat":"33.6659",
        "lon":"-117.9123",
        "pop_2010":"109960",
        "pop_2015":"113204",
        "state":"California"
    },
    {
        "city":"Miami Gardens",
        "lat":"25.9489",
        "lon":"-80.2436",
        "pop_2010":"107167",
        "pop_2015":"113187",
        "state":"Florida"
    },
    {
        "city":"Westminster",
        "lat":"39.8822",
        "lon":"-105.0644",
        "pop_2010":"106114",
        "pop_2015":"113130",
        "state":"Colorado"
    },
    {
        "city":"Clearwater",
        "lat":"27.9795",
        "lon":"-82.7663",
        "pop_2010":"107685",
        "pop_2015":"113003",
        "state":"Florida"
    },
    {
        "city":"Fairfield",
        "lat":"38.2568",
        "lon":"-122.0397",
        "pop_2010":"105321",
        "pop_2015":"112970",
        "state":"California"
    },
    {
        "city":"Rochester",
        "lat":"44.0154",
        "lon":"-92.4772",
        "pop_2010":"106769",
        "pop_2015":"112225",
        "state":"Minnesota"
    },
    {
        "city":"Elgin",
        "lat":"42.0396",
        "lon":"-88.3217",
        "pop_2010":"108188",
        "pop_2015":"112111",
        "state":"Illinois"
    },
    {
        "city":"Temecula",
        "lat":"33.5019",
        "lon":"-117.1246",
        "pop_2010":"100097",
        "pop_2015":"112011",
        "state":"California"
    },
    {
        "city":"West Jordan",
        "lat":"40.6023",
        "lon":"-112.0010",
        "pop_2010":"103712",
        "pop_2015":"111946",
        "state":"Utah"
    },
    {
        "city":"Inglewood",
        "lat":"33.9561",
        "lon":"-118.3443",
        "pop_2010":"109673",
        "pop_2015":"111666",
        "state":"California"
    },
    {
        "city":"Richardson",
        "lat":"32.9723",
        "lon":"-96.7081",
        "pop_2010":"99223",
        "pop_2015":"110815",
        "state":"Texas"
    },
    {
        "city":"Lowell",
        "lat":"42.6389",
        "lon":"-71.3221",
        "pop_2010":"106519",
        "pop_2015":"110699",
        "state":"Massachusetts"
    },
    {
        "city":"Gresham",
        "lat":"45.5023",
        "lon":"-122.4416",
        "pop_2010":"105594",
        "pop_2015":"110553",
        "state":"Oregon"
    },
    {
        "city":"Antioch",
        "lat":"37.9775",
        "lon":"-121.7976",
        "pop_2010":"102372",
        "pop_2015":"110542",
        "state":"California"
    },
    {
        "city":"Cambridge",
        "lat":"42.3760",
        "lon":"-71.1183",
        "pop_2010":"105162",
        "pop_2015":"110402",
        "state":"Massachusetts"
    },
    {
        "city":"High Point",
        "lat":"35.9855",
        "lon":"-79.9902",
        "pop_2010":"104371",
        "pop_2015":"110268",
        "state":"North Carolina"
    },
    {
        "city":"Billings",
        "lat":"45.7895",
        "lon":"-108.5499",
        "pop_2010":"104170",
        "pop_2015":"110263",
        "state":"Montana"
    },
    {
        "city":"Manchester",
        "lat":"42.9847",
        "lon":"-71.4439",
        "pop_2010":"109565",
        "pop_2015":"110229",
        "state":"New Hampshire"
    },
    {
        "city":"Murrieta",
        "lat":"33.5719",
        "lon":"-117.1907",
        "pop_2010":"103466",
        "pop_2015":"109830",
        "state":"California"
    },
    {
        "city":"Centennial",
        "lat":"39.5906",
        "lon":"-104.8691",
        "pop_2010":"100377",
        "pop_2015":"109741",
        "state":"Colorado"
    },
    {
        "city":"Richmond",
        "lat":"37.9530",
        "lon":"-122.3594",
        "pop_2010":"103701",
        "pop_2015":"109708",
        "state":"California"
    },
    {
        "city":"Ventura",
        "lat":"34.2681",
        "lon":"-119.2550",
        "pop_2010":"106433",
        "pop_2015":"109708",
        "state":"California"
    },
    {
        "city":"Pueblo",
        "lat":"38.2731",
        "lon":"-104.6124",
        "pop_2010":"106595",
        "pop_2015":"109412",
        "state":"Colorado"
    },
    {
        "city":"Pearland",
        "lat":"29.5544",
        "lon":"-95.2958",
        "pop_2010":"91252",
        "pop_2015":"108821",
        "state":"Texas"
    },
    {
        "city":"Waterbury",
        "lat":"41.5585",
        "lon":"-73.0367",
        "pop_2010":"110366",
        "pop_2015":"108802",
        "state":"Connecticut"
    },
    {
        "city":"West Covina",
        "lat":"34.0559",
        "lon":"-117.9099",
        "pop_2010":"106098",
        "pop_2015":"108484",
        "state":"California"
    },
    {
        "city":"North Charleston",
        "lat":"32.8853",
        "lon":"-80.0169",
        "pop_2010":"97471",
        "pop_2015":"108304",
        "state":"South Carolina"
    },
    {
        "city":"Everett",
        "lat":"48.0033",
        "lon":"-122.1742",
        "pop_2010":"103019",
        "pop_2015":"108010",
        "state":"Washington"
    },
    {
        "city":"College Station",
        "lat":"30.6013",
        "lon":"-96.3144",
        "pop_2010":"93857",
        "pop_2015":"107889",
        "state":"Texas"
    },
    {
        "city":"Palm Bay",
        "lat":"27.9856",
        "lon":"-80.6626",
        "pop_2010":"103190",
        "pop_2015":"107888",
        "state":"Florida"
    },
    {
        "city":"Pompano Beach",
        "lat":"26.2426",
        "lon":"-80.1290",
        "pop_2010":"99845",
        "pop_2015":"107762",
        "state":"Florida"
    },
    {
        "city":"Boulder",
        "lat":"40.0175",
        "lon":"-105.2797",
        "pop_2010":"97385",
        "pop_2015":"107349",
        "state":"Colorado"
    },
    {
        "city":"Norwalk",
        "lat":"33.9069",
        "lon":"-118.0834",
        "pop_2010":"105549",
        "pop_2015":"107140",
        "state":"California"
    },
    {
        "city":"West Palm Beach",
        "lat":"26.7483",
        "lon":"-80.1266",
        "pop_2010":"99919",
        "pop_2015":"106779",
        "state":"Florida"
    },
    {
        "city":"Broken Arrow",
        "lat":"36.0365",
        "lon":"-95.7810",
        "pop_2010":"98850",
        "pop_2015":"106563",
        "state":"Oklahoma"
    },
    {
        "city":"Daly City",
        "lat":"37.7009",
        "lon":"-122.4650",
        "pop_2010":"101123",
        "pop_2015":"106562",
        "state":"California"
    },
    {
        "city":"Sandy Springs",
        "lat":"33.5615",
        "lon":"-84.227",
        "pop_2010":"93853",
        "pop_2015":"105330",
        "state":"Georgia"
    },
    {
        "city":"Burbank",
        "lat":"34.1890",
        "lon":"-118.3249",
        "pop_2010":"103340",
        "pop_2015":"105319",
        "state":"California"
    },
    {
        "city":"Green Bay",
        "lat":"44.5207",
        "lon":"-87.9842",
        "pop_2010":"104057",
        "pop_2015":"105207",
        "state":"Wisconsin"
    },
    {
        "city":"Santa Maria",
        "lat":"34.9332",
        "lon":"-120.4438",
        "pop_2010":"99553",
        "pop_2015":"105093",
        "state":"California"
    },
    {
        "city":"Wichita Falls",
        "lat":"33.9067",
        "lon":"-98.5259",
        "pop_2010":"104553",
        "pop_2015":"104710",
        "state":"Texas"
    },
    {
        "city":"Lakeland",
        "lat":"28.0411",
        "lon":"-81.9589",
        "pop_2010":"97422",
        "pop_2015":"104401",
        "state":"Florida"
    },
    {
        "city":"Clovis",
        "lat":"36.4931",
        "lon":"-119.4211",
        "pop_2010":"95631",
        "pop_2015":"104180",
        "state":"California"
    },
    {
        "city":"Lewisville",
        "lat":"33.0383",
        "lon":"-97.0061",
        "pop_2010":"95290",
        "pop_2015":"104039",
        "state":"Texas"
    },
    {
        "city":"Tyler",
        "lat":"32.35",
        "lon":"-95.30",
        "pop_2010":"96900",
        "pop_2015":"103700",
        "state":"Texas"
    },
    {
        "city":"El Cajon",
        "lat":"32.8017",
        "lon":"-116.9605",
        "pop_2010":"99478",
        "pop_2015":"103679",
        "state":"California"
    },
    {
        "city":"San Mateo",
        "lat":"37.5542",
        "lon":"-122.3131",
        "pop_2010":"97207",
        "pop_2015":"103536",
        "state":"California"
    },
    {
        "city":"Rialto",
        "lat":"34.1118",
        "lon":"-117.3883",
        "pop_2010":"99171",
        "pop_2015":"103132",
        "state":"California"
    },
    {
        "city":"Edison",
        "lat":"40.5040",
        "lon":"-74.3494",
        "pop_2010":"99967",
        "pop_2015":"102701",
        "state":"New Jersey"
    },
    {
        "city":"Davenport",
        "lat":"41.5541",
        "lon":"-90.6040",
        "pop_2010":"99685",
        "pop_2015":"102582",
        "state":"Iowa"
    },
    {
        "city":"Hillsboro",
        "lat":"45.5167",
        "lon":"-122.9833",
        "pop_2010":"91611",
        "pop_2015":"102347",
        "state":"Oregon"
    },
    {
        "city":"Woodbridge",
        "lat":"40.5608",
        "lon":"-74.2926",
        "pop_2010":"99585",
        "pop_2015":"102105",
        "state":"New Jersey"
    },
    {
        "city":"Las Cruces",
        "lat":"32.3197",
        "lon":"-106.7653",
        "pop_2010":"97618",
        "pop_2015":"101643",
        "state":"New Mexico"
    },
    {
        "city":"South Bend",
        "lat":"41.6769",
        "lon":"-86.2690",
        "pop_2010":"101168",
        "pop_2015":"101516",
        "state":"Indiana"
    },
    {
        "city":"Vista",
        "lat":"33.1936",
        "lon":"-117.2411",
        "pop_2010":"93834",
        "pop_2015":"100890",
        "state":"California"
    },
    {
        "city":"Greeley",
        "lat":"40.4167",
        "lon":"-104.7167",
        "pop_2010":"92889",
        "pop_2015":"100883",
        "state":"Colorado"
    },
    {
        "city":"Davie",
        "lat":"26.0814",
        "lon":"-80.2803",
        "pop_2010":"91992",
        "pop_2015":"100882",
        "state":"Florida"
    },
    {
        "city":"San Angelo",
        "lat":"31.45",
        "lon":"-100.45",
        "pop_2010":"93200",
        "pop_2015":"100450",
        "state":"Texas"
    },
    {
        "city":"Jurupa Valley",
        "lat":"33.0011",
        "lon":"-117.4706",
        "pop_2010":"0",
        "pop_2015":"100314",
        "state":"California"
    },
    {
        "city":"Renton",
        "lat":"47.4867",
        "lon":"-122.1953",
        "pop_2010":"90927",
        "pop_2015":"100242",
        "state":"Washington"
    }
]